City,URL,Latitude,Longitude,Timezone,Error
warkash,https://wetter.com/afghanistan/warkash/AF1121708.html,33.3818,64.5732,Asia/Kabul,
shah-malik,https://wetter.com/afghanistan/shah-malik/AF1125940.html,34.6836,66.3261,Asia/Kabul,
ruf,https://wetter.com/afghanistan/ruf/AF1128226.html,33.6995,65.4493,Asia/Kabul,
sar-wara-in,https://wetter.com/afghanistan/sar-wara-in/AF1126774.html,33.3584,64.4093,Asia/Kabul,
jih,https://wetter.com/afghanistan/jih/AF1139219.html,34.9269,65.6415,Asia/Kabul,
tablak,https://wetter.com/afghanistan/tablak/AF1123444.html,34.6882,65.9071,Asia/Kabul,
taywarah,https://wetter.com/afghanistan/taywarah/AF1122464.html,33.5212,64.4212,Asia/Kabul,
tumbast,https://wetter.com/afghanistan/tumbast/AF1122172.html,34.3174,64.1525,Asia/Kabul,
tazri,https://wetter.com/afghanistan/tazri/AF1459288.html,33.6773,64.0245,Asia/Kabul,
titan,https://wetter.com/afghanistan/titan/AF1122402.html,33.6903,63.8636,Asia/Kabul,
punbast,https://wetter.com/afghanistan/punbast/AF1130375.html,33.4825,64.0298,Asia/Kabul,
shorabak,https://wetter.com/afghanistan/shorabak/AF1124819.html,34.0654,64.3409,Asia/Kabul,
shahrak,https://wetter.com/afghanistan/shahrak/AF1125896.html,34.1074,64.3052,Asia/Kabul,
kursiha,https://wetter.com/afghanistan/kursiha/AF1135190.html,33.5421,64.4762,Asia/Kabul,
taraz,https://wetter.com/afghanistan/taraz/AF1122773.html,34.154,63.7084,Asia/Kabul,
waz,https://wetter.com/afghanistan/waz/AF1475799.html,34.9591,65.6181,Asia/Kabul,
kushk-e-isma-il-beg,https://wetter.com/afghanistan/kushk-e-isma-il-beg/AF1135133.html,34.4741,66.1026,Asia/Kabul,
shamshayr-sang,https://wetter.com/afghanistan/shamshayr-sang/AF1125632.html,34.2113,65.2062,Asia/Kabul,
zirnich,https://wetter.com/afghanistan/zirnich/AF1120577.html,33.8184,63.7707,Asia/Kabul,
tulak,https://wetter.com/afghanistan/tulak/AF1122189.html,33.9751,63.7287,Asia/Kabul,
bibiay,https://wetter.com/afghanistan/bibiay/AF1146492.html,34.4126,64.8913,Asia/Kabul,
du-lainah,https://wetter.com/afghanistan/du-lainah/AF1459933.html,34.156,64.7857,Asia/Kabul,
ab-paran,https://wetter.com/afghanistan/ab-paran/AF1149491.html,34.0098,65.3338,Asia/Kabul,
nawah-ye-garmzar,https://wetter.com/afghanistan/nawah-ye-garmzar/AF1132179.html,33.7791,65.2204,Asia/Kabul,
pozah-ye-lich-e-sufla,https://wetter.com/afghanistan/pozah-ye-lich-e-sufla/AF1130298.html,34.5251,65.2982,Asia/Kabul,
fayroz-koh,https://wetter.com/afghanistan/fayroz-koh/AF1145904.html,34.5195,65.2509,Asia/Kabul,
zard-talah,https://wetter.com/afghanistan/zard-talah/AF1120883.html,33.9559,67.5256,Asia/Kabul,
monar-e-jam,https://wetter.com/afghanistan/monar-e-jam/AF1132832.html,34.3667,64.5833,Asia/Kabul,
dowlatyar,https://wetter.com/afghanistan/dowlatyar/AF1142758.html,34.5513,65.793,Asia/Kabul,
dahan-e-lukah-sang,https://wetter.com/afghanistan/dahan-e-lukah-sang/AF1144490.html,34.5791,65.9324,Asia/Kabul,
abul,https://wetter.com/afghanistan/abul/AF1149496.html,34.2317,65.3688,Asia/Kabul,
awak,https://wetter.com/afghanistan/awak/AF1456669.html,34.6193,66.4239,Asia/Kabul,
zakhan,https://wetter.com/afghanistan/zakhan/AF1121100.html,34.6725,64.5394,Asia/Kabul,
ghal-howz,https://wetter.com/afghanistan/ghal-howz/AF1141467.html,35.1387,64.9001,Asia/Kabul,
kargah,https://wetter.com/afghanistan/kargah/AF1138162.html,33.5188,65.3463,Asia/Kabul,
kanak,https://wetter.com/afghanistan/kanak/AF1138351.html,35.032,65.2246,Asia/Kabul,
gharibak,https://wetter.com/afghanistan/gharibak/AF1141369.html,34.0213,64.8571,Asia/Kabul,
pasaband,https://wetter.com/afghanistan/pasaband/AF1131045.html,33.6896,64.8531,Asia/Kabul,
sarjar,https://wetter.com/afghanistan/sarjar/AF1126951.html,33.1013,65.0015,Asia/Kabul,
abdul-alim-kelay,https://wetter.com/afghanistan/abdul-alim-kelay/AF1448002.html,31.2297,64.2064,Asia/Kabul,
wechah-ghulbah,https://wetter.com/afghanistan/wechah-ghulbah/AF1121573.html,32.6839,64.6857,Asia/Kabul,
malik-anwar-kelay,https://wetter.com/afghanistan/malik-anwar-kelay/AF1448023.html,31.058,64.2012,Asia/Kabul,
kini-ulya,https://wetter.com/afghanistan/kini-ulya/AF1137494.html,32.3557,64.2671,Asia/Kabul,
lashkar-gah,https://wetter.com/afghanistan/lashkar-gah/AF1134720.html,31.5938,64.3716,Asia/Kabul,
tal-e-zahir,https://wetter.com/afghanistan/tal-e-zahir/AF1123054.html,31.7055,64.6092,Asia/Kabul,
gereshk,https://wetter.com/afghanistan/gereshk/AF1141540.html,31.8209,64.5701,Asia/Kabul,
sharqi-muhammad-omar-kelay,https://wetter.com/afghanistan/sharqi-muhammad-omar-kelay/AF1425319.html,31.7374,64.4585,Asia/Kabul,
deh-sufian,https://wetter.com/afghanistan/deh-sufian/AF1473050.html,32.2808,64.7919,Asia/Kabul,
pandu,https://wetter.com/afghanistan/pandu/AF1473740.html,32.1447,64.6291,Asia/Kabul,
loy-kobar,https://wetter.com/afghanistan/loy-kobar/AF1134434.html,32.1418,64.8267,Asia/Kabul,
mullayano-kor,https://wetter.com/afghanistan/mullayano-kor/AF1132671.html,31.103,64.1955,Asia/Kabul,
de-shadi-khan-juma-at,https://wetter.com/afghanistan/de-shadi-khan-juma-at/AF1473701.html,32.0428,64.8384,Asia/Kabul,
bowr,https://wetter.com/afghanistan/bowr/AF1146776.html,32.3854,65.1275,Asia/Kabul,
hukumat-e-nad-ali,https://wetter.com/afghanistan/hukumat-e-nad-ali/AF1132550.html,31.6429,64.2398,Asia/Kabul,
nal,https://wetter.com/afghanistan/nal/AF1455351.html,32.4527,64.2369,Asia/Kabul,
chisht-e-sharif,https://wetter.com/afghanistan/chisht-e-sharif/AF1145007.html,34.3473,63.7397,Asia/Kabul,
kalbi,https://wetter.com/afghanistan/kalbi/AF1138543.html,34.9518,62.3707,Asia/Kabul,
kushk,https://wetter.com/afghanistan/kushk/AF1135158.html,33.2957,61.9522,Asia/Kabul,
sangin,https://wetter.com/afghanistan/sangin/AF1127547.html,32.0728,64.8359,Asia/Kabul,
parlarzar,https://wetter.com/afghanistan/parlarzar/AF1131078.html,33.2204,65.0445,Asia/Kabul,
zolaykhar-e-sufla,https://wetter.com/afghanistan/zolaykhar-e-sufla/AF1120554.html,32.2261,63.6244,Asia/Kabul,
tormay,https://wetter.com/afghanistan/tormay/AF1122068.html,33.6885,68.4021,Asia/Kabul,
nazar-muhammad-khan-kelay,https://wetter.com/afghanistan/nazar-muhammad-khan-kelay/AF1448001.html,31.2498,64.2135,Asia/Kabul,
la-l,https://wetter.com/afghanistan/la-l/AF1134887.html,34.5014,66.28,Asia/Kabul,
salih-khan-kelay,https://wetter.com/afghanistan/salih-khan-kelay/AF1447993.html,31.263,64.2377,Asia/Kabul,
nadir-kelay,https://wetter.com/afghanistan/nadir-kelay/AF1448004.html,31.2172,64.2032,Asia/Kabul,
binowsh,https://wetter.com/afghanistan/binowsh/AF1477139.html,32.8634,64.5967,Asia/Kabul,
khan-neshin,https://wetter.com/afghanistan/khan-neshin/AF1137079.html,30.5488,63.7888,Asia/Kabul,
pasto-khan-kelay,https://wetter.com/afghanistan/pasto-khan-kelay/AF1448008.html,31.1994,64.1777,Asia/Kabul,
garmsir,https://wetter.com/afghanistan/garmsir/AF1141769.html,31.1167,64.2,Asia/Kabul,
gharian,https://wetter.com/afghanistan/gharian/AF1141332.html,33.1909,65.1398,Asia/Kabul,
din-muhammad-khan-kelay,https://wetter.com/afghanistan/din-muhammad-khan-kelay/AF1143068.html,31.1439,64.1674,Asia/Kabul,
qaryah-ye-malang,https://wetter.com/afghanistan/qaryah-ye-malang/AF1129369.html,32.3638,64.5126,Asia/Kabul,
muhammad-akbar-khan-kelay,https://wetter.com/afghanistan/muhammad-akbar-khan-kelay/AF1133100.html,30.7222,64.1168,Asia/Kabul,
alaqahdari-dishu,https://wetter.com/afghanistan/alaqahdari-dishu/AF1149052.html,30.4321,63.298,Asia/Kabul,
tah-khumak,https://wetter.com/afghanistan/tah-khumak/AF1123209.html,32.3226,64.3328,Asia/Kabul,
markaz-e-hukumat-e-darweshan,https://wetter.com/afghanistan/markaz-e-hukumat-e-darweshan/AF1143901.html,31.1323,64.1934,Asia/Kabul,
now-zad,https://wetter.com/afghanistan/now-zad/AF1131649.html,32.4032,64.4696,Asia/Kabul,
ghul-mesh,https://wetter.com/afghanistan/ghul-mesh/AF1141031.html,32.6201,65.1796,Asia/Kabul,
koraw-e-mansur,https://wetter.com/afghanistan/koraw-e-mansur/AF6252147.html,33.406,65.0686,Asia/Kabul,
washer,https://wetter.com/afghanistan/washer/AF1121855.html,32.2512,63.8555,Asia/Kabul,
musa-qal-ah,https://wetter.com/afghanistan/musa-qal-ah/AF1132604.html,32.4457,64.7449,Asia/Kabul,
jiow,https://wetter.com/afghanistan/jiow/AF1470985.html,34.6694,64.8201,Asia/Kabul,
riga,https://wetter.com/afghanistan/riga/AF1128391.html,34.0924,67.369,Asia/Kabul,
zareh-kala,https://wetter.com/afghanistan/zareh-kala/AF1120996.html,33.1272,67.9794,Asia/Kabul,
zalimi,https://wetter.com/afghanistan/zalimi/AF1121086.html,33.4395,63.1707,Asia/Kabul,
kaykak,https://wetter.com/afghanistan/kaykak/AF1137569.html,35.6201,65.0559,Asia/Kabul,
dowlatabad,https://wetter.com/afghanistan/dowlatabad/AF1142777.html,36.4326,64.9207,Asia/Kabul,
khosh-bay,https://wetter.com/afghanistan/khosh-bay/AF1135974.html,36.012,64.61,Asia/Kabul,
khosh-bay,https://wetter.com/afghanistan/khosh-bay/AF1120485.html,35.5,64.3667,Asia/Kabul,
bibi-a-inah,https://wetter.com/afghanistan/bibi-a-inah/AF1423719.html,35.9018,64.7669,Asia/Kabul,
korda-qal-ah,https://wetter.com/afghanistan/korda-qal-ah/AF1135236.html,35.748,64.539,Asia/Kabul,
kilt-e-khuras,https://wetter.com/afghanistan/kilt-e-khuras/AF1137507.html,35.6899,64.0413,Asia/Kabul,
arkalik,https://wetter.com/afghanistan/arkalik/AF1148372.html,35.6301,64.2501,Asia/Kabul,
maymana,https://wetter.com/afghanistan/maymana/AF1133453.html,35.9214,64.7836,Asia/Kabul,
mordian,https://wetter.com/afghanistan/mordian/AF1425691.html,37.0019,66.2956,Asia/Kabul,
alaqahdari-ye-almar,https://wetter.com/afghanistan/alaqahdari-ye-almar/AF1148863.html,35.8462,64.5307,Asia/Kabul,
matu,https://wetter.com/afghanistan/matu/AF1424384.html,35.7487,64.1139,Asia/Kabul,
bay-ghisi,https://wetter.com/afghanistan/bay-ghisi/AF1147460.html,36.0657,64.6627,Asia/Kabul,
ghalbala,https://wetter.com/afghanistan/ghalbala/AF1141499.html,35.9843,64.4545,Asia/Kabul,
qurghan,https://wetter.com/afghanistan/qurghan/AF1128954.html,36.9194,65.0649,Asia/Kabul,
sar-chakan,https://wetter.com/afghanistan/sar-chakan/AF1127451.html,35.7018,65.2306,Asia/Kabul,
qaryah-ye-zindan,https://wetter.com/afghanistan/qaryah-ye-zindan/AF1129283.html,35.4041,65.1683,Asia/Kabul,
shah-qasimi,https://wetter.com/afghanistan/shah-qasimi/AF1125909.html,35.8575,64.6197,Asia/Kabul,
khwajah-zaid-khan,https://wetter.com/afghanistan/khwajah-zaid-khan/AF1136022.html,35.5797,64.2974,Asia/Kabul,
qarah-qol,https://wetter.com/afghanistan/qarah-qol/AF1424398.html,35.8896,64.2455,Asia/Kabul,
jej,https://wetter.com/afghanistan/jej/AF1139215.html,35.3448,64.6731,Asia/Kabul,
shahr-e-kuhnah,https://wetter.com/afghanistan/shahr-e-kuhnah/AF1125875.html,32.4422,62.0625,Asia/Kabul,
tapah,https://wetter.com/afghanistan/tapah/AF1122829.html,32.731,62.576,Asia/Kabul,
pasaw,https://wetter.com/afghanistan/pasaw/AF1131039.html,32.6366,62.3842,Asia/Kabul,
tahanah-ye-nai-bastah,https://wetter.com/afghanistan/tahanah-ye-nai-bastah/AF1123336.html,32.9702,60.9084,Asia/Kabul,
tirgin,https://wetter.com/afghanistan/tirgin/AF1122509.html,32.2924,61.5077,Asia/Kabul,
ular,https://wetter.com/afghanistan/ular/AF1121975.html,32.5926,63.6509,Asia/Kabul,
wang,https://wetter.com/afghanistan/wang/AF1121745.html,33.0818,63.9689,Asia/Kabul,
yak-ling,https://wetter.com/afghanistan/yak-ling/AF1121317.html,32.9058,61.0782,Asia/Kabul,
chahar-bagh,https://wetter.com/afghanistan/chahar-bagh/AF1137147.html,37.0011,65.2239,Asia/Kabul,
andkhoy,https://wetter.com/afghanistan/andkhoy/AF1148658.html,36.9529,65.1238,Asia/Kabul,
alti-bulaq-tuzkan,https://wetter.com/afghanistan/alti-bulaq-tuzkan/AF1148830.html,36.855,65.1089,Asia/Kabul,
hotaki,https://wetter.com/afghanistan/hotaki/AF1424407.html,35.9282,64.3681,Asia/Kabul,
hirak,https://wetter.com/afghanistan/hirak/AF1140028.html,35.7258,63.9395,Asia/Kabul,
wulak,https://wetter.com/afghanistan/wulak/AF1121549.html,32.5774,63.0639,Asia/Kabul,
fayzabad,https://wetter.com/afghanistan/fayzabad/AF1142172.html,36.2911,64.8622,Asia/Kabul,
bal-chiragh,https://wetter.com/afghanistan/bal-chiragh/AF1146576.html,35.8403,65.2309,Asia/Kabul,
qaisar,https://wetter.com/afghanistan/qaisar/AF1129077.html,35.6875,64.2932,Asia/Kabul,
qaram-qol,https://wetter.com/afghanistan/qaram-qol/AF1464552.html,36.8301,65.043,Asia/Kabul,
aqineh,https://wetter.com/afghanistan/aqineh/AF1148541.html,37.1167,65.1667,Asia/Kabul,
parkhish,https://wetter.com/afghanistan/parkhish/AF1423691.html,35.7457,64.8659,Asia/Kabul,
okak,https://wetter.com/afghanistan/okak/AF1132172.html,33.8979,67.9565,Asia/Kabul,
tilan,https://wetter.com/afghanistan/tilan/AF1122478.html,35.5368,64.8094,Asia/Kabul,
urtipah,https://wetter.com/afghanistan/urtipah/AF1424307.html,36.1402,64.6633,Asia/Kabul,
qoryah,https://wetter.com/afghanistan/qoryah/AF1128940.html,33.4596,67.6821,Asia/Kabul,
minzi,https://wetter.com/afghanistan/minzi/AF1133529.html,32.775,67.7327,Asia/Kabul,
muqer,https://wetter.com/afghanistan/muqer/AF1132807.html,32.8201,67.7693,Asia/Kabul,
chahar-deh,https://wetter.com/afghanistan/chahar-deh/AF1435661.html,32.8119,67.7715,Asia/Kabul,
sang-e-mashah,https://wetter.com/afghanistan/sang-e-mashah/AF1127604.html,33.1396,67.4405,Asia/Kabul,
ughday,https://wetter.com/afghanistan/ughday/AF1121987.html,33.6639,67.9698,Asia/Kabul,
jaghuri,https://wetter.com/afghanistan/jaghuri/AF1139757.html,33.1331,67.4536,Asia/Kabul,
oriski,https://wetter.com/afghanistan/oriski/AF1131475.html,33.0036,68.2386,Asia/Kabul,
baraki,https://wetter.com/afghanistan/baraki/AF1147071.html,33.4043,67.7662,Asia/Kabul,
vakhabkala,https://wetter.com/afghanistan/vakhabkala/AF1121818.html,32.6662,67.7552,Asia/Kabul,
sarfiraz-kala,https://wetter.com/afghanistan/sarfiraz-kala/AF1127001.html,32.9833,67.9652,Asia/Kabul,
sar-sotah,https://wetter.com/afghanistan/sar-sotah/AF1126818.html,33.2237,68.0557,Asia/Kabul,
natar,https://wetter.com/afghanistan/natar/AF1132232.html,33.2117,68.2836,Asia/Kabul,
qal-ah-ye-alam,https://wetter.com/afghanistan/qal-ah-ye-alam/AF1435284.html,33.4559,68.5167,Asia/Kabul,
qarah-bagh,https://wetter.com/afghanistan/qarah-bagh/AF1129680.html,33.198,68.108,Asia/Kabul,
kuhnah-deh-e-junubi,https://wetter.com/afghanistan/kuhnah-deh-e-junubi/AF1135801.html,33.2008,67.8356,Asia/Kabul,
miray,https://wetter.com/afghanistan/miray/AF1120500.html,33.3246,68.4407,Asia/Kabul,
kadi-jan-murad,https://wetter.com/afghanistan/kadi-jan-murad/AF1138873.html,33.1221,68.1077,Asia/Kabul,
ramak,https://wetter.com/afghanistan/ramak/AF1128565.html,33.5223,68.6264,Asia/Kabul,
spine-ghundey,https://wetter.com/afghanistan/spine-ghundey/AF1123901.html,32.6751,67.687,Asia/Kabul,
eslam-qaleh,https://wetter.com/afghanistan/eslam-qaleh/AF1142404.html,34.6667,61.0667,Asia/Kabul,
gardan,https://wetter.com/afghanistan/gardan/AF1460435.html,34.0962,67.7419,Asia/Kabul,
urtipah,https://wetter.com/afghanistan/urtipah/AF1424305.html,36.151,64.6623,Asia/Kabul,
tukah-ali,https://wetter.com/afghanistan/tukah-ali/AF1122197.html,35.7694,64.7006,Asia/Kabul,
urtipah,https://wetter.com/afghanistan/urtipah/AF1424303.html,36.1789,64.6698,Asia/Kabul,
yosuf-mirzai,https://wetter.com/afghanistan/yosuf-mirzai/AF1121153.html,36.8403,65.1409,Asia/Kabul,
zo-ye-ruji,https://wetter.com/afghanistan/zo-ye-ruji/AF1120538.html,36.189,64.9762,Asia/Kabul,
baraki,https://wetter.com/afghanistan/baraki/AF1442407.html,33.3665,66.978,Asia/Kabul,
chahar-qal-ah,https://wetter.com/afghanistan/chahar-qal-ah/AF1145799.html,33.5527,68.2983,Asia/Kabul,
alaqahdari-gelan,https://wetter.com/afghanistan/alaqahdari-gelan/AF1140919.html,32.7269,67.637,Asia/Kabul,
bazar-e-malistan,https://wetter.com/afghanistan/bazar-e-malistan/AF1134134.html,33.2927,67.1709,Asia/Kabul,
chakah,https://wetter.com/afghanistan/chakah/AF1145654.html,33.0565,67.758,Asia/Kabul,
qash-e-pa-in,https://wetter.com/afghanistan/qash-e-pa-in/AF1129227.html,33.0455,67.6091,Asia/Kabul,
jaghatuy-ghazni,https://wetter.com/afghanistan/jaghatuy-ghazni/AF1139764.html,33.5748,68.1941,Asia/Kabul,
naurozi,https://wetter.com/afghanistan/naurozi/AF1131662.html,33.03,67.79,Asia/Kabul,
latif,https://wetter.com/afghanistan/latif/AF1134689.html,32.6972,67.6589,Asia/Kabul,
qal-ah-ye-wali-ye-bala,https://wetter.com/afghanistan/qal-ah-ye-wali-ye-bala/AF1129773.html,33.5985,68.2976,Asia/Kabul,
ghazni,https://wetter.com/afghanistan/ghazni/AF1141269.html,33.5539,68.421,Asia/Kabul,
deh-gardu,https://wetter.com/afghanistan/deh-gardu/AF1143491.html,33.3006,67.9633,Asia/Kabul,
gulo,https://wetter.com/afghanistan/gulo/AF1140775.html,33.233,68.4212,Asia/Kabul,
mukum,https://wetter.com/afghanistan/mukum/AF1132983.html,33.245,68.4518,Asia/Kabul,
lash,https://wetter.com/afghanistan/lash/AF1120484.html,35.3782,64.7746,Asia/Kabul,
herat,https://wetter.com/afghanistan/herat/AF0HR0001.html,34.3482,62.1997,Asia/Kabul,
sur-ghbarg,https://wetter.com/afghanistan/sur-ghbarg/AF1123588.html,32.2139,67.382,Asia/Kabul,
buzdan,https://wetter.com/afghanistan/buzdan/AF1472201.html,34.2828,62.2512,Asia/Kabul,
ghaslambar,https://wetter.com/afghanistan/ghaslambar/AF1472146.html,34.2343,62.1876,Asia/Kabul,
amanzi,https://wetter.com/afghanistan/amanzi/AF1148792.html,30.2114,66.0477,Asia/Kabul,
ghoriyan,https://wetter.com/afghanistan/ghoriyan/AF1140970.html,34.3448,61.4932,Asia/Kabul,
gardanah,https://wetter.com/afghanistan/gardanah/AF1141887.html,32.1714,65.9138,Asia/Kabul,
khal-dadran,https://wetter.com/afghanistan/khal-dadran/AF1137292.html,32.8592,61.6983,Asia/Kabul,
adraskan,https://wetter.com/afghanistan/adraskan/AF1149379.html,33.6457,62.2696,Asia/Kabul,
sinjid,https://wetter.com/afghanistan/sinjid/AF1126379.html,33.5543,62.4563,Asia/Kabul,
kishmarun,https://wetter.com/afghanistan/kishmarun/AF1137453.html,34.1297,61.4714,Asia/Kabul,
kal-kijah,https://wetter.com/afghanistan/kal-kijah/AF1138515.html,33.549,62.6592,Asia/Kabul,
qashuri,https://wetter.com/afghanistan/qashuri/AF1129219.html,34.8944,61.9606,Asia/Kabul,
de-maimand-chinah,https://wetter.com/afghanistan/de-maimand-chinah/AF1143274.html,31.7474,65.1316,Asia/Kabul,
garzi-zi,https://wetter.com/afghanistan/garzi-zi/AF1436115.html,31.6683,67.2441,Asia/Kabul,
zuri,https://wetter.com/afghanistan/zuri/AF1428170.html,33.9406,62.1609,Asia/Kabul,
larsiwad,https://wetter.com/afghanistan/larsiwad/AF1134735.html,34.9962,62.3087,Asia/Kabul,
obeh,https://wetter.com/afghanistan/obeh/AF1131406.html,34.3697,63.1764,Asia/Kabul,
kishk-e-nakhud,https://wetter.com/afghanistan/kishk-e-nakhud/AF1137745.html,31.6252,65.0551,Asia/Kabul,
sakzi-kelay,https://wetter.com/afghanistan/sakzi-kelay/AF1127882.html,31.6915,67.2097,Asia/Kabul,
kuhsan,https://wetter.com/afghanistan/kuhsan/AF1120483.html,34.6539,61.1978,Asia/Kabul,
guzarah,https://wetter.com/afghanistan/guzarah/AF1140605.html,34.2122,62.2124,Asia/Kabul,
gajah,https://wetter.com/afghanistan/gajah/AF1142070.html,34.1447,62.559,Asia/Kabul,
chahar-burj,https://wetter.com/afghanistan/chahar-burj/AF1145866.html,34.2448,62.1917,Asia/Kabul,
toykah,https://wetter.com/afghanistan/toykah/AF1122251.html,34.2364,68.4858,Asia/Kabul,
zarah-kala,https://wetter.com/afghanistan/zarah-kala/AF1120995.html,34.2074,68.6203,Asia/Kabul,
abdul-samad-khan,https://wetter.com/afghanistan/abdul-samad-khan/AF1149572.html,31.2314,62.174,Asia/Kabul,
mirdil,https://wetter.com/afghanistan/mirdil/AF1438866.html,31.1917,62.1012,Asia/Kabul,
kalar,https://wetter.com/afghanistan/kalar/AF1138570.html,34.6406,61.2244,Asia/Kabul,
rabat-e-sangi-ye-pa-in,https://wetter.com/afghanistan/rabat-e-sangi-ye-pa-in/AF1128310.html,34.7995,62.1392,Asia/Kabul,
amanat-baba,https://wetter.com/afghanistan/amanat-baba/AF1148803.html,31.7716,64.8821,Asia/Kabul,
shorawak,https://wetter.com/afghanistan/shorawak/AF1124815.html,35.3138,61.3928,Asia/Kabul,
zidan,https://wetter.com/afghanistan/zidan/AF1120614.html,32.1794,66.0572,Asia/Kabul,
ab-charmi,https://wetter.com/afghanistan/ab-charmi/AF1149530.html,35.4368,61.3857,Asia/Kabul,
almatay,https://wetter.com/afghanistan/almatay/AF1427831.html,32.4387,66.4164,Asia/Kabul,
de-haji-muhammad-yar-kelay,https://wetter.com/afghanistan/de-haji-muhammad-yar-kelay/AF1143650.html,32.1899,66.2614,Asia/Kabul,
zindah-jan,https://wetter.com/afghanistan/zindah-jan/AF1120711.html,34.3426,61.7468,Asia/Kabul,
aybak,https://wetter.com/afghanistan/aybak/AF1147941.html,34.5224,61.9752,Asia/Kabul,
karukh,https://wetter.com/afghanistan/karukh/AF1137807.html,34.4811,62.5863,Asia/Kabul,
kort,https://wetter.com/afghanistan/kort/AF1135551.html,34.2302,62.3178,Asia/Kabul,
ni-mat,https://wetter.com/afghanistan/ni-mat/AF1131929.html,34.9846,61.8237,Asia/Kabul,
qarah-bagh,https://wetter.com/afghanistan/qarah-bagh/AF1129678.html,34.9402,61.7759,Asia/Kabul,
chinar,https://wetter.com/afghanistan/chinar/AF1145124.html,32.0158,65.1072,Asia/Kabul,
gharay,https://wetter.com/afghanistan/gharay/AF1436086.html,31.5812,67.0526,Asia/Kabul,
sur-e-kani,https://wetter.com/afghanistan/sur-e-kani/AF1123613.html,31.8407,65.4116,Asia/Kabul,
totya-karez,https://wetter.com/afghanistan/totya-karez/AF1424839.html,32.166,65.5671,Asia/Kabul,
kamosh,https://wetter.com/afghanistan/kamosh/AF1472725.html,34.8143,69.7954,Asia/Kabul,
sabah,https://wetter.com/afghanistan/sabah/AF1437174.html,31.3281,67.3265,Asia/Kabul,
pashmul,https://wetter.com/afghanistan/pashmul/AF1130997.html,31.5572,65.4343,Asia/Kabul,
ghachahlan,https://wetter.com/afghanistan/ghachahlan/AF1141526.html,35.1191,69.6199,Asia/Kabul,
mersinzi,https://wetter.com/afghanistan/mersinzi/AF1466559.html,31.5354,65.3921,Asia/Kabul,
la-l-muhammad-kor,https://wetter.com/afghanistan/la-l-muhammad-kor/AF1134896.html,32.4765,66.0698,Asia/Kabul,
babah-sat,https://wetter.com/afghanistan/babah-sat/AF1429476.html,35.0823,69.5602,Asia/Kabul,
abe-khel,https://wetter.com/afghanistan/abe-khel/AF1429469.html,35.0881,69.5922,Asia/Kabul,
loy-naw,https://wetter.com/afghanistan/loy-naw/AF1472680.html,34.8126,69.6922,Asia/Kabul,
naguman,https://wetter.com/afghanistan/naguman/AF1132518.html,34.9625,69.5132,Asia/Kabul,
shorabgay,https://wetter.com/afghanistan/shorabgay/AF1124806.html,31.9405,65.806,Asia/Kabul,
tughay,https://wetter.com/afghanistan/tughay/AF1122201.html,31.7989,65.8217,Asia/Kabul,
nalkhah,https://wetter.com/afghanistan/nalkhah/AF1429513.html,35.0618,69.7218,Asia/Kabul,
mira-khel,https://wetter.com/afghanistan/mira-khel/AF1472423.html,34.8879,69.6776,Asia/Kabul,
zamto-kelay,https://wetter.com/afghanistan/zamto-kelay/AF1121045.html,32.3726,66.1771,Asia/Kabul,
dozbay-khel,https://wetter.com/afghanistan/dozbay-khel/AF1142735.html,35.068,69.5771,Asia/Kabul,
adizai,https://wetter.com/afghanistan/adizai/AF1472422.html,34.8845,69.6578,Asia/Kabul,
kastar-khel,https://wetter.com/afghanistan/kastar-khel/AF1472374.html,34.9055,69.8542,Asia/Kabul,
naysar,https://wetter.com/afghanistan/naysar/AF1429466.html,35.0861,69.6038,Asia/Kabul,
muhammad-hasan-buzai,https://wetter.com/afghanistan/muhammad-hasan-buzai/AF1438862.html,31.2159,62.0472,Asia/Kabul,
khoday-rahm-kelay,https://wetter.com/afghanistan/khoday-rahm-kelay/AF1136594.html,30.9128,66.2883,Asia/Kabul,
sup,https://wetter.com/afghanistan/sup/AF1123638.html,31.3672,67.1873,Asia/Kabul,
alah-say,https://wetter.com/afghanistan/alah-say/AF1149107.html,34.8965,69.7205,Asia/Kabul,
shnah-nari,https://wetter.com/afghanistan/shnah-nari/AF1124289.html,31.2807,66.7737,Asia/Kabul,
kandahar,https://wetter.com/afghanistan/kandahar/AF1138336.html,31.6133,65.7101,Asia/Kabul,
qal-ah-ye-farsi,https://wetter.com/afghanistan/qal-ah-ye-farsi/AF1142234.html,33.7853,63.2474,Asia/Kabul,
ali-khan-zai,https://wetter.com/afghanistan/ali-khan-zai/AF1148941.html,31.5059,66.4467,Asia/Kabul,
bebani-kelay,https://wetter.com/afghanistan/bebani-kelay/AF1436853.html,31.6252,66.1568,Asia/Kabul,
shorlin,https://wetter.com/afghanistan/shorlin/AF1123532.html,31.5131,66.1794,Asia/Kabul,
baba-sahib,https://wetter.com/afghanistan/baba-sahib/AF1453777.html,31.6614,65.661,Asia/Kabul,
spin-boldak,https://wetter.com/afghanistan/spin-boldak/AF1123906.html,31.0058,66.4,Asia/Kabul,
ziarat-e-shah-maqsud,https://wetter.com/afghanistan/ziarat-e-shah-maqsud/AF1120627.html,31.9848,65.4736,Asia/Kabul,
de-ighzo-kelay,https://wetter.com/afghanistan/de-ighzo-kelay/AF1480430.html,31.4702,67.338,Asia/Kabul,
lich,https://wetter.com/afghanistan/lich/AF1454160.html,34.9007,69.7054,Asia/Kabul,
tik,https://wetter.com/afghanistan/tik/AF1459439.html,33.8369,63.4442,Asia/Kabul,
shotur-gardan,https://wetter.com/afghanistan/shotur-gardan/AF1124911.html,32.0488,65.4966,Asia/Kabul,
de-narkhel-kelay,https://wetter.com/afghanistan/de-narkhel-kelay/AF1143255.html,32.4321,65.6348,Asia/Kabul,
khugyani,https://wetter.com/afghanistan/khugyani/AF1136442.html,31.5627,66.5814,Asia/Kabul,
sakzo-kelay,https://wetter.com/afghanistan/sakzo-kelay/AF1477172.html,31.1652,66.3385,Asia/Kabul,
safi,https://wetter.com/afghanistan/safi/AF1128011.html,32.2638,65.9025,Asia/Kabul,
pewarah,https://wetter.com/afghanistan/pewarah/AF1130709.html,31.5473,67.3532,Asia/Kabul,
urdu,https://wetter.com/afghanistan/urdu/AF1131486.html,34.1885,68.6182,Asia/Kabul,
wuleswali-bihsud,https://wetter.com/afghanistan/wuleswali-bihsud/AF1120473.html,34.3436,67.9057,Asia/Kabul,
abd-ol,https://wetter.com/afghanistan/abd-ol/AF1126224.html,31.1647,62.0267,Asia/Kabul,
lash-e-juwayn,https://wetter.com/afghanistan/lash-e-juwayn/AF1134724.html,31.7138,61.6227,Asia/Kabul,
hukumat-e-shinkai,https://wetter.com/afghanistan/hukumat-e-shinkai/AF1139967.html,31.983,67.3356,Asia/Kabul,
kshetah-kelay,https://wetter.com/afghanistan/kshetah-kelay/AF1120476.html,32.0883,67.6924,Asia/Kabul,
zer-sang-kelay,https://wetter.com/afghanistan/zer-sang-kelay/AF1120573.html,32.7204,66.7712,Asia/Kabul,
ja-far-e-sufla,https://wetter.com/afghanistan/ja-far-e-sufla/AF1435794.html,32.5444,67.5014,Asia/Kabul,
shelah-ye-watan,https://wetter.com/afghanistan/shelah-ye-watan/AF1436203.html,31.8955,67.1156,Asia/Kabul,
wujar,https://wetter.com/afghanistan/wujar/AF1121557.html,32.9123,67.2302,Asia/Kabul,
khakiran,https://wetter.com/afghanistan/khakiran/AF1137359.html,32.8385,67.0738,Asia/Kabul,
srah,https://wetter.com/afghanistan/srah/AF1123832.html,32.1623,67.6761,Asia/Kabul,
dewalgi-kelay,https://wetter.com/afghanistan/dewalgi-kelay/AF1143014.html,31.7624,67.3592,Asia/Kabul,
jughu,https://wetter.com/afghanistan/jughu/AF1139124.html,32.1561,66.8355,Asia/Kabul,
sine-kelay,https://wetter.com/afghanistan/sine-kelay/AF1124353.html,32.0289,67.8165,Asia/Kabul,
rahim-kelay,https://wetter.com/afghanistan/rahim-kelay/AF1128619.html,31.8074,66.7585,Asia/Kabul,
qalat,https://wetter.com/afghanistan/qalat/AF1130131.html,32.1058,66.9083,Asia/Kabul,
shahr-e-safa,https://wetter.com/afghanistan/shahr-e-safa/AF1125866.html,31.8035,66.3238,Asia/Kabul,
shelagey,https://wetter.com/afghanistan/shelagey/AF1436890.html,31.7743,66.2607,Asia/Kabul,
ado,https://wetter.com/afghanistan/ado/AF1149387.html,32.1098,67.1226,Asia/Kabul,
shahr-e-now,https://wetter.com/afghanistan/shahr-e-now/AF6677798.html,30.9521,61.8634,Asia/Kabul,
samandar,https://wetter.com/afghanistan/samandar/AF1436990.html,31.8763,66.3597,Asia/Kabul,
lahari-kelay,https://wetter.com/afghanistan/lahari-kelay/AF1436135.html,31.6973,67.3754,Asia/Kabul,
mizan-alaqahdari,https://wetter.com/afghanistan/mizan-alaqahdari/AF1133154.html,32.1764,66.5127,Asia/Kabul,
shaygan,https://wetter.com/afghanistan/shaygan/AF1125465.html,32.6636,67.1465,Asia/Kabul,
shomali,https://wetter.com/afghanistan/shomali/AF1474742.html,32.3444,65.0817,Asia/Kabul,
injil,https://wetter.com/afghanistan/injil/AF1142517.html,34.3016,62.2465,Asia/Kabul,
shindand,https://wetter.com/afghanistan/shindand/AF1125155.html,33.3029,62.1474,Asia/Kabul,
tir-pul,https://wetter.com/afghanistan/tir-pul/AF1122408.html,34.5943,61.269,Asia/Kabul,
rasum-bay,https://wetter.com/afghanistan/rasum-bay/AF1128481.html,34.9777,62.3444,Asia/Kabul,
sabzi-kar,https://wetter.com/afghanistan/sabzi-kar/AF1128101.html,32.346,65.0245,Asia/Kabul,
kushk-e-kuhnah,https://wetter.com/afghanistan/kushk-e-kuhnah/AF1135625.html,34.8711,62.5476,Asia/Kabul,
rabat,https://wetter.com/afghanistan/rabat/AF1128707.html,33.5704,63.0435,Asia/Kabul,
spi-tut,https://wetter.com/afghanistan/spi-tut/AF1123840.html,32.2798,66.4595,Asia/Kabul,
tanor,https://wetter.com/afghanistan/tanor/AF1122844.html,32.4778,66.9176,Asia/Kabul,
nayak,https://wetter.com/afghanistan/nayak/AF1132046.html,32.5723,66.774,Asia/Kabul,
malang-khune,https://wetter.com/afghanistan/malang-khune/AF1447823.html,32.4099,66.7251,Asia/Kabul,
pumbah,https://wetter.com/afghanistan/pumbah/AF1130383.html,32.0463,67.0656,Asia/Kabul,
shimizi,https://wetter.com/afghanistan/shimizi/AF1125176.html,32.5304,66.9803,Asia/Kabul,
pai-nawah,https://wetter.com/afghanistan/pai-nawah/AF1130815.html,32.1279,66.3737,Asia/Kabul,
tiliray,https://wetter.com/afghanistan/tiliray/AF1122537.html,32.3275,67.224,Asia/Kabul,
sayagaz,https://wetter.com/afghanistan/sayagaz/AF1126710.html,32.5652,67.0332,Asia/Kabul,
sperah,https://wetter.com/afghanistan/sperah/AF1443140.html,32.5811,67.053,Asia/Kabul,
ulum-e-sufla,https://wetter.com/afghanistan/ulum-e-sufla/AF1443325.html,32.9489,67.3367,Asia/Kabul,
beshah,https://wetter.com/afghanistan/beshah/AF1146394.html,34.3337,63.755,Asia/Kabul,
alaqahdari-atghar,https://wetter.com/afghanistan/alaqahdari-atghar/AF1148114.html,31.7351,67.3574,Asia/Kabul,
jamal-khel,https://wetter.com/afghanistan/jamal-khel/AF1139652.html,32.569,67.4339,Asia/Kabul,
abd-ul-samad-khan,https://wetter.com/afghanistan/abd-ul-samad-khan/AF1149573.html,31.2162,61.7804,Asia/Kabul,
sarang,https://wetter.com/afghanistan/sarang/AF1127408.html,31.394,62.3573,Asia/Kabul,
aday,https://wetter.com/afghanistan/aday/AF1149411.html,30.7538,61.8257,Asia/Kabul,
haleli,https://wetter.com/afghanistan/haleli/AF1148415.html,31.4095,62.4619,Asia/Kabul,
rutah,https://wetter.com/afghanistan/rutah/AF1128192.html,30.347,61.8608,Asia/Kabul,
mirabad,https://wetter.com/afghanistan/mirabad/AF1133310.html,30.4362,61.8383,Asia/Kabul,
mulla-akhtar-muhammad,https://wetter.com/afghanistan/mulla-akhtar-muhammad/AF1436301.html,31.0739,61.8811,Asia/Kabul,
khash,https://wetter.com/afghanistan/khash/AF1136863.html,31.5292,62.7906,Asia/Kabul,
alaqadar-muhammad-sharif,https://wetter.com/afghanistan/alaqadar-muhammad-sharif/AF1436313.html,31.0089,61.8661,Asia/Kabul,
dawud-shah,https://wetter.com/afghanistan/dawud-shah/AF1436295.html,31.0958,61.905,Asia/Kabul,
loy-razay,https://wetter.com/afghanistan/loy-razay/AF1134424.html,31.446,62.6908,Asia/Kabul,
alim-khan,https://wetter.com/afghanistan/alim-khan/AF1436320.html,31.0392,61.8839,Asia/Kabul,
a-zam-khan,https://wetter.com/afghanistan/a-zam-khan/AF1436287.html,31.0967,61.845,Asia/Kabul,
doktor-pir-muhammad,https://wetter.com/afghanistan/doktor-pir-muhammad/AF1436280.html,31.1133,61.8547,Asia/Kabul,
malmal-sar,https://wetter.com/afghanistan/malmal-sar/AF1134106.html,31.8972,62.5835,Asia/Kabul,
karim,https://wetter.com/afghanistan/karim/AF1138135.html,31.2229,62.0577,Asia/Kabul,
talah-deh,https://wetter.com/afghanistan/talah-deh/AF1123103.html,34.3772,67.8189,Asia/Kabul,
qol-e-nokar,https://wetter.com/afghanistan/qol-e-nokar/AF1460531.html,34.4389,67.722,Asia/Kabul,
pir-muhammad-khan,https://wetter.com/afghanistan/pir-muhammad-khan/AF1436239.html,31.0238,61.8478,Asia/Kabul,
rudbar,https://wetter.com/afghanistan/rudbar/AF1128239.html,30.15,62.6,Asia/Kabul,
sarfaraz-e-khwashi,https://wetter.com/afghanistan/sarfaraz-e-khwashi/AF1438864.html,31.1954,62.0651,Asia/Kabul,
mir-ali-khan,https://wetter.com/afghanistan/mir-ali-khan/AF1133283.html,30.9434,61.8319,Asia/Kabul,
rakin,https://wetter.com/afghanistan/rakin/AF1128583.html,31.9194,63.1175,Asia/Kabul,
sher-ahmad-khan,https://wetter.com/afghanistan/sher-ahmad-khan/AF1436286.html,31.1,61.8417,Asia/Kabul,
alaqahdari-shah-joy,https://wetter.com/afghanistan/alaqahdari-shah-joy/AF1125962.html,32.5215,67.4132,Asia/Kabul,
qaryah-ye-haji-muhammad-afzal-khan,https://wetter.com/afghanistan/qaryah-ye-haji-muhammad-afzal-khan/AF1129478.html,30.1469,62.4594,Asia/Kabul,
kibay,https://wetter.com/afghanistan/kibay/AF1137531.html,32.6216,66.653,Asia/Kabul,
jelgay,https://wetter.com/afghanistan/jelgay/AF1139196.html,32.2255,67.6405,Asia/Kabul,
ayubzay,https://wetter.com/afghanistan/ayubzay/AF1443047.html,32.2936,67.52,Asia/Kabul,
sarandsch,https://wetter.com/afghanistan/sarandsch/AF1120985.html,30.9596,61.8604,Asia/Kabul,
tahanah-ye-ghulam-muhammad-khan,https://wetter.com/afghanistan/tahanah-ye-ghulam-muhammad-khan/AF1436244.html,31.1842,61.7953,Asia/Kabul,
abdur-rahim-kelay,https://wetter.com/afghanistan/abdur-rahim-kelay/AF1450105.html,32.7005,66.7149,Asia/Kabul,
haji-muhammad-anwar,https://wetter.com/afghanistan/haji-muhammad-anwar/AF1140326.html,30.9066,61.8721,Asia/Kabul,
deh-e-naqsha,https://wetter.com/afghanistan/deh-e-naqsha/AF6677802.html,30.9619,61.8716,Asia/Kabul,
kichi,https://wetter.com/afghanistan/kichi/AF1135891.html,30.9,61.8306,Asia/Kabul,
gazak,https://wetter.com/afghanistan/gazak/AF1141663.html,31.3333,62.3167,Asia/Kabul,
ra-is-jum-ah-khan,https://wetter.com/afghanistan/ra-is-jum-ah-khan/AF1128595.html,30.9313,61.8926,Asia/Kabul,
dadkhuda,https://wetter.com/afghanistan/dadkhuda/AF1435980.html,30.9388,61.8173,Asia/Kabul,
sardar-ibrahim,https://wetter.com/afghanistan/sardar-ibrahim/AF1127319.html,30.9906,61.8547,Asia/Kabul,
haji-khan-gul,https://wetter.com/afghanistan/haji-khan-gul/AF1436240.html,31.2108,61.8442,Asia/Kabul,
haji-malang,https://wetter.com/afghanistan/haji-malang/AF1435972.html,30.9547,61.8272,Asia/Kabul,
samur,https://wetter.com/afghanistan/samur/AF1127733.html,31.6911,61.5384,Asia/Kabul,
du-qal-ah,https://wetter.com/afghanistan/du-qal-ah/AF1142852.html,32.1424,61.4469,Asia/Kabul,
kajari,https://wetter.com/afghanistan/kajari/AF1138761.html,33.3561,63.5689,Asia/Kabul,
pul-e-khumri,https://wetter.com/afghanistan/pul-e-khumri/AF1130490.html,35.9446,68.7151,Asia/Kabul,
nahrin,https://wetter.com/afghanistan/nahrin/AF1132495.html,36.0649,69.1334,Asia/Kabul,
tangi-murch,https://wetter.com/afghanistan/tangi-murch/AF1122874.html,36.2857,69.1797,Asia/Kabul,
uzbako-kelay,https://wetter.com/afghanistan/uzbako-kelay/AF1470090.html,35.9088,68.5034,Asia/Kabul,
shah-hasan,https://wetter.com/afghanistan/shah-hasan/AF1126024.html,35.624,68.372,Asia/Kabul,
yakah-tut,https://wetter.com/afghanistan/yakah-tut/AF1121325.html,36.201,68.823,Asia/Kabul,
pul-e-hisar,https://wetter.com/afghanistan/pul-e-hisar/AF1464922.html,35.6179,69.4713,Asia/Kabul,
yakhpaj,https://wetter.com/afghanistan/yakhpaj/AF1121337.html,35.9012,69.1904,Asia/Kabul,
zar-sang-e-pa-in,https://wetter.com/afghanistan/zar-sang-e-pa-in/AF1120808.html,35.174,68.2422,Asia/Kabul,
zayr-e-nahr,https://wetter.com/afghanistan/zayr-e-nahr/AF1120696.html,36.2142,68.8048,Asia/Kabul,
zulfaqar,https://wetter.com/afghanistan/zulfaqar/AF1120518.html,35.6168,68.6703,Asia/Kabul,
aq-kupruk,https://wetter.com/afghanistan/aq-kupruk/AF1120501.html,36.0835,66.8403,Asia/Kabul,
gundan,https://wetter.com/afghanistan/gundan/AF1405890.html,36.7768,66.9341,Asia/Kabul,
chimtal,https://wetter.com/afghanistan/chimtal/AF1145128.html,36.6782,66.8033,Asia/Kabul,
kandali,https://wetter.com/afghanistan/kandali/AF1138332.html,36.1265,66.7122,Asia/Kabul,
gor-e-nazar,https://wetter.com/afghanistan/gor-e-nazar/AF1140663.html,36.1767,67.4332,Asia/Kabul,
balch,https://wetter.com/afghanistan/balch/AF1147290.html,36.7564,66.8972,Asia/Kabul,
chashmah-ye-sher,https://wetter.com/afghanistan/chashmah-ye-sher/AF1476096.html,36.0556,68.5571,Asia/Kabul,
baglan,https://wetter.com/afghanistan/baglan/AF1147540.html,36.1307,68.7083,Asia/Kabul,
upiani,https://wetter.com/afghanistan/upiani/AF1409328.html,36.2268,68.8569,Asia/Kabul,
nagharah-khanah,https://wetter.com/afghanistan/nagharah-khanah/AF1428834.html,35.4059,68.2615,Asia/Kabul,
shaykhan,https://wetter.com/afghanistan/shaykhan/AF1125257.html,35.8283,69.5447,Asia/Kabul,
baghlan,https://wetter.com/afghanistan/baghlan/AF1476097.html,36.2215,68.7745,Asia/Kabul,
lar-e-badak,https://wetter.com/afghanistan/lar-e-badak/AF1134775.html,35.5821,68.4531,Asia/Kabul,
logarian,https://wetter.com/afghanistan/logarian/AF1410102.html,36.0597,69.1163,Asia/Kabul,
deh-e-talib,https://wetter.com/afghanistan/deh-e-talib/AF1143395.html,35.9314,69.5462,Asia/Kabul,
deh-e-salah,https://wetter.com/afghanistan/deh-e-salah/AF1143529.html,35.6903,69.3151,Asia/Kabul,
buz-darah,https://wetter.com/afghanistan/buz-darah/AF1146240.html,35.9676,69.0875,Asia/Kabul,
doshi,https://wetter.com/afghanistan/doshi/AF1142738.html,35.6092,68.6847,Asia/Kabul,
aqchah,https://wetter.com/afghanistan/aqchah/AF1465210.html,36.2434,67.0961,Asia/Kabul,
burkah,https://wetter.com/afghanistan/burkah/AF1146911.html,36.2224,69.1504,Asia/Kabul,
hukumati-dahanah-ye-ghori,https://wetter.com/afghanistan/hukumati-dahanah-ye-ghori/AF1144559.html,35.9062,68.4887,Asia/Kabul,
baraki,https://wetter.com/afghanistan/baraki/AF1147035.html,36.041,68.9721,Asia/Kabul,
sochi,https://wetter.com/afghanistan/sochi/AF1123750.html,35.8977,69.4833,Asia/Kabul,
bazar-e-talah,https://wetter.com/afghanistan/bazar-e-talah/AF1146694.html,35.3921,68.2232,Asia/Kabul,
gudano-kelay,https://wetter.com/afghanistan/gudano-kelay/AF1470127.html,35.9648,68.6266,Asia/Kabul,
wardak,https://wetter.com/afghanistan/wardak/AF1409322.html,36.2524,68.8015,Asia/Kabul,
talik,https://wetter.com/afghanistan/talik/AF1123066.html,36.1074,69.6238,Asia/Kabul,
pashah-i,https://wetter.com/afghanistan/pashah-i/AF1131014.html,35.8732,69.62,Asia/Kabul,
bunah-zai,https://wetter.com/afghanistan/bunah-zai/AF1146135.html,36.1053,68.9975,Asia/Kabul,
dowlatabad,https://wetter.com/afghanistan/dowlatabad/AF1142776.html,36.9882,66.8207,Asia/Kabul,
bahram-gor,https://wetter.com/afghanistan/bahram-gor/AF1147471.html,36.2094,67.0684,Asia/Kabul,
oljatu,https://wetter.com/afghanistan/oljatu/AF1131550.html,36.7208,67.6268,Asia/Kabul,
masar-e-scharif,https://wetter.com/afghanistan/masar-e-scharif/AF0BK0001.html,36.709,67.1109,Asia/Kabul,
qaranghu-toghai,https://wetter.com/afghanistan/qaranghu-toghai/AF1427089.html,37.2153,67.6397,Asia/Kabul,
mazar,https://wetter.com/afghanistan/mazar/AF1133635.html,35.8186,66.8035,Asia/Kabul,
shor-ariq,https://wetter.com/afghanistan/shor-ariq/AF1124781.html,37.3118,66.7287,Asia/Kabul,
tabah-aiaq,https://wetter.com/afghanistan/tabah-aiaq/AF1123473.html,36.3161,66.7915,Asia/Kabul,
surkh-gunbaz,https://wetter.com/afghanistan/surkh-gunbaz/AF1124088.html,36.966,66.9159,Asia/Kabul,
amrod,https://wetter.com/afghanistan/amrod/AF1148732.html,35.2204,67.9227,Asia/Kabul,
gird,https://wetter.com/afghanistan/gird/AF1462256.html,34.0111,67.0062,Asia/Kabul,
qizilabad,https://wetter.com/afghanistan/qizilabad/AF1129070.html,36.7201,67.1957,Asia/Kabul,
tukhum-gildi,https://wetter.com/afghanistan/tukhum-gildi/AF1122372.html,37.3289,67.0876,Asia/Kabul,
bayano,https://wetter.com/afghanistan/bayano/AF1457765.html,34.7064,66.8107,Asia/Kabul,
tash-guzar,https://wetter.com/afghanistan/tash-guzar/AF1122707.html,37.2435,67.2041,Asia/Kabul,
naspatan,https://wetter.com/afghanistan/naspatan/AF1132241.html,34.0307,67.097,Asia/Kabul,
espi-sang,https://wetter.com/afghanistan/espi-sang/AF1142342.html,35.024,67.9634,Asia/Kabul,
rashak-e-giro,https://wetter.com/afghanistan/rashak-e-giro/AF1128524.html,34.7351,67.0506,Asia/Kabul,
panjab,https://wetter.com/afghanistan/panjab/AF1131162.html,34.388,67.0233,Asia/Kabul,
dum-e-dasht,https://wetter.com/afghanistan/dum-e-dasht/AF1457333.html,34.7519,67.849,Asia/Kabul,
bamyan,https://wetter.com/afghanistan/bamyan/AF1147242.html,34.8216,67.8273,Asia/Kabul,
khakdow,https://wetter.com/afghanistan/khakdow/AF1137381.html,34.9558,67.2591,Asia/Kabul,
aytak,https://wetter.com/afghanistan/aytak/AF1147902.html,35.8463,68.4357,Asia/Kabul,
shorchah,https://wetter.com/afghanistan/shorchah/AF1124764.html,36.1892,67.0917,Asia/Kabul,
qal-ah-ye-ajiri,https://wetter.com/afghanistan/qal-ah-ye-ajiri/AF1130053.html,36.7298,67.0637,Asia/Kabul,
khulm,https://wetter.com/afghanistan/khulm/AF1136575.html,36.6974,67.6983,Asia/Kabul,
samar-qandian,https://wetter.com/afghanistan/samar-qandian/AF1127758.html,36.6877,66.8435,Asia/Kabul,
dehdadi,https://wetter.com/afghanistan/dehdadi/AF1143630.html,36.6632,66.9934,Asia/Kabul,
khar-shakastah,https://wetter.com/afghanistan/khar-shakastah/AF1136910.html,35.9756,66.9395,Asia/Kabul,
lab-sar,https://wetter.com/afghanistan/lab-sar/AF1465349.html,36.0263,66.838,Asia/Kabul,
logariha,https://wetter.com/afghanistan/logariha/AF1134608.html,36.7605,67.6976,Asia/Kabul,
buyni-qarah,https://wetter.com/afghanistan/buyni-qarah/AF1124879.html,36.3172,66.8752,Asia/Kabul,
aqchah,https://wetter.com/afghanistan/aqchah/AF1465209.html,36.2243,67.1144,Asia/Kabul,
shah-polad,https://wetter.com/afghanistan/shah-polad/AF1125914.html,35.9558,66.9823,Asia/Kabul,
kanguri,https://wetter.com/afghanistan/kanguri/AF1138288.html,36.3089,66.772,Asia/Kabul,
qamishli,https://wetter.com/afghanistan/qamishli/AF1129733.html,36.4289,66.5743,Asia/Kabul,
ashdadah,https://wetter.com/afghanistan/ashdadah/AF1148281.html,35.9456,66.9002,Asia/Kabul,
kochak-qizil,https://wetter.com/afghanistan/kochak-qizil/AF1465220.html,36.2091,66.683,Asia/Kabul,
nakhchirabad,https://wetter.com/afghanistan/nakhchirabad/AF1132449.html,37.0108,66.8882,Asia/Kabul,
qarchi-gak,https://wetter.com/afghanistan/qarchi-gak/AF1129636.html,37.04,66.7889,Asia/Kabul,
khwajah-khaliq-munjai,https://wetter.com/afghanistan/khwajah-khaliq-munjai/AF1136187.html,36.767,66.9133,Asia/Kabul,
kochak-qizil,https://wetter.com/afghanistan/kochak-qizil/AF1135855.html,36.2267,66.6774,Asia/Kabul,
qal-ah-ye-razaq,https://wetter.com/afghanistan/qal-ah-ye-razaq/AF1129834.html,36.6882,66.6776,Asia/Kabul,
langarkhana-kalan,https://wetter.com/afghanistan/langarkhana-kalan/AF1134798.html,36.7648,67.0272,Asia/Kabul,
banu,https://wetter.com/afghanistan/banu/AF1147118.html,35.6335,69.2602,Asia/Kabul,
larbach,https://wetter.com/afghanistan/larbach/AF1134778.html,35.622,69.5763,Asia/Kabul,
gardan-deh,https://wetter.com/afghanistan/gardan-deh/AF1141892.html,35.1945,68.0667,Asia/Kabul,
nowabad,https://wetter.com/afghanistan/nowabad/AF1131765.html,37.6822,70.5073,Asia/Kabul,
hafiz-moghul,https://wetter.com/afghanistan/hafiz-moghul/AF1140433.html,37.0564,70.4006,Asia/Kabul,
kuran-wa-munjan,https://wetter.com/afghanistan/kuran-wa-munjan/AF1135656.html,36.0287,70.7726,Asia/Kabul,
sher,https://wetter.com/afghanistan/sher/AF1466219.html,36.851,71.5151,Asia/Kabul,
mashhad,https://wetter.com/afghanistan/mashhad/AF1133749.html,36.8167,70.1021,Asia/Kabul,
ziraki,https://wetter.com/afghanistan/ziraki/AF1467505.html,37.5923,70.5581,Asia/Kabul,
imtalah,https://wetter.com/afghanistan/imtalah/AF1142534.html,36.9277,70.4187,Asia/Kabul,
dasak,https://wetter.com/afghanistan/dasak/AF1467083.html,38.4163,70.8478,Asia/Kabul,
pakman,https://wetter.com/afghanistan/pakman/AF1467398.html,37.6055,70.4235,Asia/Kabul,
zaybak,https://wetter.com/afghanistan/zaybak/AF1120616.html,36.5295,71.3441,Asia/Kabul,
tozh-darah,https://wetter.com/afghanistan/tozh-darah/AF1468330.html,37.1871,70.5851,Asia/Kabul,
pas-pul,https://wetter.com/afghanistan/pas-pul/AF1468514.html,37.4736,70.6162,Asia/Kabul,
maymay,https://wetter.com/afghanistan/maymay/AF1133657.html,38.4086,71.0384,Asia/Kabul,
urgunt,https://wetter.com/afghanistan/urgunt/AF1121935.html,36.8172,72.0583,Asia/Kabul,
khandud,https://wetter.com/afghanistan/khandud/AF1137148.html,36.9513,72.318,Asia/Kabul,
qal-ah-ye-kuf,https://wetter.com/afghanistan/qal-ah-ye-kuf/AF1129928.html,38.0412,70.473,Asia/Kabul,
nusay,https://wetter.com/afghanistan/nusay/AF1131591.html,38.4435,70.8041,Asia/Kabul,
prip,https://wetter.com/afghanistan/prip/AF1465876.html,37.0516,72.6898,Asia/Kabul,
ghumay,https://wetter.com/afghanistan/ghumay/AF1465934.html,38.389,70.8001,Asia/Kabul,
zus-kad,https://wetter.com/afghanistan/zus-kad/AF1467015.html,38.2913,70.8181,Asia/Kabul,
kar-kat,https://wetter.com/afghanistan/kar-kat/AF1137833.html,36.9837,73.4115,Asia/Kabul,
khasabah,https://wetter.com/afghanistan/khasabah/AF1468124.html,37.2348,70.2765,Asia/Kabul,
najoy,https://wetter.com/afghanistan/najoy/AF1427880.html,32.182,66.4241,Asia/Kabul,
baharak,https://wetter.com/afghanistan/baharak/AF1147489.html,37.0025,70.9066,Asia/Kabul,
anj,https://wetter.com/afghanistan/anj/AF1468190.html,37.4971,70.4134,Asia/Kabul,
ashkasham,https://wetter.com/afghanistan/ashkasham/AF1148268.html,36.6833,71.5333,Asia/Kabul,
ghurayd-gharame,https://wetter.com/afghanistan/ghurayd-gharame/AF1141098.html,36.5222,70.7906,Asia/Kabul,
chakaran,https://wetter.com/afghanistan/chakaran/AF1145607.html,36.9111,71.0688,Asia/Kabul,
bazar-e-tashkan,https://wetter.com/afghanistan/bazar-e-tashkan/AF1122705.html,36.8817,70.2767,Asia/Kabul,
jurm,https://wetter.com/afghanistan/jurm/AF1139085.html,36.8648,70.8342,Asia/Kabul,
fayzabad,https://wetter.com/afghanistan/fayzabad/AF1142170.html,37.1166,70.58,Asia/Kabul,
inow,https://wetter.com/afghanistan/inow/AF1131496.html,37.0183,70.1406,Asia/Kabul,
kedah,https://wetter.com/afghanistan/kedah/AF1137528.html,36.5109,71.3283,Asia/Kabul,
sakhay-e-malang-ab,https://wetter.com/afghanistan/sakhay-e-malang-ab/AF1468638.html,37.016,70.9697,Asia/Kabul,
darayim,https://wetter.com/afghanistan/darayim/AF1144121.html,36.8667,70.3833,Asia/Kabul,
darmadar,https://wetter.com/afghanistan/darmadar/AF1144049.html,37.2199,71.4391,Asia/Kabul,
shahran,https://wetter.com/afghanistan/shahran/AF1125890.html,36.9798,70.7393,Asia/Kabul,
march,https://wetter.com/afghanistan/march/AF1467433.html,37.5285,70.4482,Asia/Kabul,
nirs,https://wetter.com/afghanistan/nirs/AF1140053.html,36.9869,73.3301,Asia/Kabul,
deh-khwahan,https://wetter.com/afghanistan/deh-khwahan/AF1136354.html,37.8897,70.2188,Asia/Kabul,
khanaqa,https://wetter.com/afghanistan/khanaqa/AF1468062.html,37.0577,70.6522,Asia/Kabul,
safed-khanah,https://wetter.com/afghanistan/safed-khanah/AF1437945.html,33.9376,66.9911,Asia/Kabul,
amil,https://wetter.com/afghanistan/amil/AF1148771.html,35.1276,64.6084,Asia/Kabul,
ludinah,https://wetter.com/afghanistan/ludinah/AF1134493.html,35.6056,63.3253,Asia/Kabul,
spayray,https://wetter.com/afghanistan/spayray/AF1123948.html,35.1807,64.4937,Asia/Kabul,
tar-shaybal,https://wetter.com/afghanistan/tar-shaybal/AF1122728.html,35.2156,64.427,Asia/Kabul,
takak,https://wetter.com/afghanistan/takak/AF1123265.html,34.8253,63.507,Asia/Kabul,
jawand,https://wetter.com/afghanistan/jawand/AF1139335.html,35.0636,64.1492,Asia/Kabul,
rashid-khan,https://wetter.com/afghanistan/rashid-khan/AF1128503.html,35.5061,63.3732,Asia/Kabul,
tormay,https://wetter.com/afghanistan/tormay/AF1122067.html,34.9097,64.5825,Asia/Kabul,
ab-e-kamari,https://wetter.com/afghanistan/ab-e-kamari/AF1149550.html,35.088,63.0678,Asia/Kabul,
regi,https://wetter.com/afghanistan/regi/AF1128426.html,34.8681,63.8188,Asia/Kabul,
husain,https://wetter.com/afghanistan/husain/AF1139877.html,35.7878,63.6665,Asia/Kabul,
tah-e-takht,https://wetter.com/afghanistan/tah-e-takht/AF1123328.html,34.837,64.2324,Asia/Kabul,
sini,https://wetter.com/afghanistan/sini/AF1124346.html,34.7703,63.0983,Asia/Kabul,
tutak,https://wetter.com/afghanistan/tutak/AF1122032.html,35.5819,63.9074,Asia/Kabul,
zaman,https://wetter.com/afghanistan/zaman/AF1121081.html,35.2822,63.4638,Asia/Kabul,
zaft,https://wetter.com/afghanistan/zaft/AF1121133.html,34.7035,63.0316,Asia/Kabul,
zay-murad,https://wetter.com/afghanistan/zay-murad/AF1120748.html,34.8749,62.9752,Asia/Kabul,
do-awi,https://wetter.com/afghanistan/do-awi/AF1469972.html,35.6026,68.9964,Asia/Kabul,
aluchah,https://wetter.com/afghanistan/aluchah/AF1148820.html,35.2163,68.1407,Asia/Kabul,
khinjan,https://wetter.com/afghanistan/khinjan/AF1136723.html,35.5891,68.9009,Asia/Kabul,
sang-atesh,https://wetter.com/afghanistan/sang-atesh/AF1127664.html,35.248,63.0044,Asia/Kabul,
aman-khan,https://wetter.com/afghanistan/aman-khan/AF1148800.html,35.257,63.687,Asia/Kabul,
tuta,https://wetter.com/afghanistan/tuta/AF1122045.html,35.3855,63.8084,Asia/Kabul,
birad,https://wetter.com/afghanistan/birad/AF1146556.html,34.8323,63.0235,Asia/Kabul,
qadis,https://wetter.com/afghanistan/qadis/AF1130233.html,34.8085,63.43,Asia/Kabul,
bayah,https://wetter.com/afghanistan/bayah/AF1146763.html,35.4113,64.0895,Asia/Kabul,
qala-i-naw,https://wetter.com/afghanistan/qala-i-naw/AF1129867.html,34.9874,63.1289,Asia/Kabul,
dehistan,https://wetter.com/afghanistan/dehistan/AF1143513.html,34.6905,62.9257,Asia/Kabul,
chakabak,https://wetter.com/afghanistan/chakabak/AF1145630.html,34.8344,63.8632,Asia/Kabul,
galah-ye-chashmah,https://wetter.com/afghanistan/galah-ye-chashmah/AF1424206.html,35.7191,63.4973,Asia/Kabul,
laman,https://wetter.com/afghanistan/laman/AF1134881.html,34.7523,63.1042,Asia/Kabul,
miranza-i,https://wetter.com/afghanistan/miranza-i/AF1133273.html,35.6718,63.2861,Asia/Kabul,
murichaq,https://wetter.com/afghanistan/murichaq/AF1132641.html,35.8104,63.1427,Asia/Kabul,
bala-murghab,https://wetter.com/afghanistan/bala-murghab/AF1132770.html,35.5841,63.3289,Asia/Kabul,
shorab,https://wetter.com/afghanistan/shorab/AF1124926.html,35.0934,63.8885,Asia/Kabul,
qipchaq,https://wetter.com/afghanistan/qipchaq/AF1129030.html,34.9113,63.0295,Asia/Kabul,
kabuli-farari,https://wetter.com/afghanistan/kabuli-farari/AF1138941.html,35.5909,63.3338,Asia/Kabul,
aw-bakhsh,https://wetter.com/afghanistan/aw-bakhsh/AF1457648.html,34.8693,63.2742,Asia/Kabul,
sumsum,https://wetter.com/afghanistan/sumsum/AF1123652.html,35.0747,64.2215,Asia/Kabul,
pa-in-e-koh,https://wetter.com/afghanistan/pa-in-e-koh/AF1424555.html,35.2009,64.5259,Asia/Kabul,
mulla-tuti-ye-fayroz-e-zai,https://wetter.com/afghanistan/mulla-tuti-ye-fayroz-e-zai/AF1132875.html,35.0597,63.2908,Asia/Kabul,
sahib-zadah,https://wetter.com/afghanistan/sahib-zadah/AF1127962.html,35.2542,63.527,Asia/Kabul,
ghormach,https://wetter.com/afghanistan/ghormach/AF1141089.html,35.7306,63.7826,Asia/Kabul,
qala,https://wetter.com/afghanistan/qala/AF1121979.html,35.1981,67.4505,Asia/Kabul,
nayak,https://wetter.com/afghanistan/nayak/AF1132034.html,34.7341,66.9529,Asia/Kabul,
dahan-e-gudar,https://wetter.com/afghanistan/dahan-e-gudar/AF1144581.html,34.3674,66.7663,Asia/Kabul,
ghulmalah,https://wetter.com/afghanistan/ghulmalah/AF1141146.html,36.6733,65.7212,Asia/Kabul,
nikrabad,https://wetter.com/afghanistan/nikrabad/AF1131933.html,36.7446,65.8371,Asia/Kabul,
irakli,https://wetter.com/afghanistan/irakli/AF1142506.html,36.9125,66.0304,Asia/Kabul,
chakish-e-sarband,https://wetter.com/afghanistan/chakish-e-sarband/AF1145585.html,36.8258,66.3001,Asia/Kabul,
khwajah-du-koh,https://wetter.com/afghanistan/khwajah-du-koh/AF1136250.html,36.8288,65.6243,Asia/Kabul,
aranji,https://wetter.com/afghanistan/aranji/AF1148463.html,36.9872,66.4401,Asia/Kabul,
chob-bash-e-now,https://wetter.com/afghanistan/chob-bash-e-now/AF1425447.html,36.791,65.6101,Asia/Kabul,
mardian,https://wetter.com/afghanistan/mardian/AF1133856.html,36.9925,66.2965,Asia/Kabul,
aqchah,https://wetter.com/afghanistan/aqchah/AF1148560.html,36.905,66.1834,Asia/Kabul,
kushkah,https://wetter.com/afghanistan/kushkah/AF1135152.html,36.7964,66.5667,Asia/Kabul,
khanaqah,https://wetter.com/afghanistan/khanaqah/AF1137160.html,36.8628,66.1666,Asia/Kabul,
faizabad,https://wetter.com/afghanistan/faizabad/AF1142171.html,36.8209,66.4592,Asia/Kabul,
tarnow,https://wetter.com/afghanistan/tarnow/AF1425458.html,36.5707,65.776,Asia/Kabul,
pir-e-gharib,https://wetter.com/afghanistan/pir-e-gharib/AF1130634.html,35.9458,65.1928,Asia/Kabul,
qarqin,https://wetter.com/afghanistan/qarqin/AF1129516.html,37.4185,66.0436,Asia/Kabul,
khanumi,https://wetter.com/afghanistan/khanumi/AF1137074.html,36.8178,66.4022,Asia/Kabul,
piazly-kol,https://wetter.com/afghanistan/piazly-kol/AF1130686.html,36.2161,65.4521,Asia/Kabul,
jangal-e-ariq,https://wetter.com/afghanistan/jangal-e-ariq/AF1139554.html,36.9514,66.2567,Asia/Kabul,
mingajik,https://wetter.com/afghanistan/mingajik/AF1133544.html,37.0279,66.1282,Asia/Kabul,
shibirghan,https://wetter.com/afghanistan/shibirghan/AF1125444.html,36.6676,65.7529,Asia/Kabul,
chikh-razi,https://wetter.com/afghanistan/chikh-razi/AF1125217.html,37.0139,66.1545,Asia/Kabul,
amar-turki,https://wetter.com/afghanistan/amar-turki/AF1148786.html,36.5806,65.8009,Asia/Kabul,
now-murchah,https://wetter.com/afghanistan/now-murchah/AF1131702.html,34.0341,65.6188,Asia/Kabul,
karel,https://wetter.com/afghanistan/karel/AF1138172.html,33.4019,66.7802,Asia/Kabul,
tutak,https://wetter.com/afghanistan/tutak/AF1442784.html,33.8381,67.068,Asia/Kabul,
nili,https://wetter.com/afghanistan/nili/AF1131833.html,33.7218,66.1302,Asia/Kabul,
tagak,https://wetter.com/afghanistan/tagak/AF1437710.html,33.738,66.6303,Asia/Kabul,
qabchirak,https://wetter.com/afghanistan/qabchirak/AF6252105.html,33.4567,65.4657,Asia/Kabul,
top,https://wetter.com/afghanistan/top/AF1437792.html,33.804,66.7079,Asia/Kabul,
waghmir,https://wetter.com/afghanistan/waghmir/AF1121820.html,33.5626,66.1672,Asia/Kabul,
zin,https://wetter.com/afghanistan/zin/AF1448150.html,33.2225,66.0969,Asia/Kabul,
umayd,https://wetter.com/afghanistan/umayd/AF1131502.html,33.7471,66.8276,Asia/Kabul,
malajok,https://wetter.com/afghanistan/malajok/AF1134200.html,33.2927,66.5515,Asia/Kabul,
jowzari,https://wetter.com/afghanistan/jowzari/AF1139257.html,34.0238,65.761,Asia/Kabul,
ushu,https://wetter.com/afghanistan/ushu/AF1121910.html,33.5414,66.6228,Asia/Kabul,
ghowchak,https://wetter.com/afghanistan/ghowchak/AF1141125.html,33.8862,67.2,Asia/Kabul,
zarga,https://wetter.com/afghanistan/zarga/AF1437707.html,33.7509,66.6358,Asia/Kabul,
waras-e-ulya,https://wetter.com/afghanistan/waras-e-ulya/AF1121736.html,33.4473,66.0971,Asia/Kabul,
zerat,https://wetter.com/afghanistan/zerat/AF1120703.html,34.0087,66.5583,Asia/Kabul,
andari,https://wetter.com/afghanistan/andari/AF1148665.html,36.9935,66.3296,Asia/Kabul,
shala,https://wetter.com/afghanistan/shala/AF1125732.html,33.7069,65.7916,Asia/Kabul,
sar-e-tayghan,https://wetter.com/afghanistan/sar-e-tayghan/AF1126796.html,33.51,65.6763,Asia/Kabul,
maimanah-yoly,https://wetter.com/afghanistan/maimanah-yoly/AF1133333.html,36.2066,65.4617,Asia/Kabul,
kan-kowi,https://wetter.com/afghanistan/kan-kowi/AF1138277.html,37.0333,65.3833,Asia/Kabul,
lar-zari,https://wetter.com/afghanistan/lar-zari/AF1134726.html,33.113,64.0452,Asia/Kabul,
jowazak,https://wetter.com/afghanistan/jowazak/AF1139332.html,33.1423,63.8797,Asia/Kabul,
kari,https://wetter.com/afghanistan/kari/AF1138141.html,33.3079,63.6796,Asia/Kabul,
qaryah-ye-kaf-tisti,https://wetter.com/afghanistan/qaryah-ye-kaf-tisti/AF1129399.html,33.2626,63.5057,Asia/Kabul,
qaryah-ye-rabata,https://wetter.com/afghanistan/qaryah-ye-rabata/AF1129485.html,33.2809,63.5515,Asia/Kabul,
karez-e-rahmatullah,https://wetter.com/afghanistan/karez-e-rahmatullah/AF1137915.html,32.321,61.8899,Asia/Kabul,
kushkak,https://wetter.com/afghanistan/kushkak/AF1437312.html,32.2899,61.5219,Asia/Kabul,
shewan,https://wetter.com/afghanistan/shewan/AF1125287.html,32.6296,62.4895,Asia/Kabul,
karez-e-rasul,https://wetter.com/afghanistan/karez-e-rasul/AF1137913.html,33.1421,61.7607,Asia/Kabul,
jar-e-mansur,https://wetter.com/afghanistan/jar-e-mansur/AF1139420.html,33.1562,63.4993,Asia/Kabul,
farah,https://wetter.com/afghanistan/farah/AF1142264.html,32.3745,62.1164,Asia/Kabul,
seh-goshah-ye-junubi,https://wetter.com/afghanistan/seh-goshah-ye-junubi/AF1126503.html,32.4592,63.5223,Asia/Kabul,
laman,https://wetter.com/afghanistan/laman/AF1134882.html,32.8828,63.5152,Asia/Kabul,
lakh-sang,https://wetter.com/afghanistan/lakh-sang/AF1134971.html,33.2436,64.1586,Asia/Kabul,
bolyah,https://wetter.com/afghanistan/bolyah/AF1146175.html,33.321,63.6723,Asia/Kabul,
qal-ah-ye-kuhnah,https://wetter.com/afghanistan/qal-ah-ye-kuhnah/AF1129932.html,32.6159,63.6668,Asia/Kabul,
dasht-e-qal-ah,https://wetter.com/afghanistan/dasht-e-qal-ah/AF1143816.html,33.0298,63.8395,Asia/Kabul,
markaz-e-hukumat-e-sultan-e-bakwah,https://wetter.com/afghanistan/markaz-e-hukumat-e-sultan-e-bakwah/AF1123666.html,32.2414,62.9494,Asia/Kabul,
kasgin,https://wetter.com/afghanistan/kasgin/AF1137770.html,32.47,62.1637,Asia/Kabul,
khamyab,https://wetter.com/afghanistan/khamyab/AF1137247.html,37.5275,65.7583,Asia/Kabul,
jurg,https://wetter.com/afghanistan/jurg/AF1139092.html,32.1499,61.4109,Asia/Kabul,
faizabad-e-pa-in,https://wetter.com/afghanistan/faizabad-e-pa-in/AF1142167.html,33.1445,63.7174,Asia/Kabul,
hasanabad,https://wetter.com/afghanistan/hasanabad/AF1425444.html,36.7621,65.8403,Asia/Kabul,
darzab,https://wetter.com/afghanistan/darzab/AF1143874.html,35.9774,65.3783,Asia/Kabul,
shor-ariq,https://wetter.com/afghanistan/shor-ariq/AF1124783.html,36.7743,65.951,Asia/Kabul,
jar-e-quduq,https://wetter.com/afghanistan/jar-e-quduq/AF1139362.html,36.3039,65.4842,Asia/Kabul,
maimanah-qishlaq,https://wetter.com/afghanistan/maimanah-qishlaq/AF1133451.html,36.1118,65.5391,Asia/Kabul,
lab-e-jar-e-taghan,https://wetter.com/afghanistan/lab-e-jar-e-taghan/AF1135069.html,36.716,65.6384,Asia/Kabul,
timurak-now-warid,https://wetter.com/afghanistan/timurak-now-warid/AF1422298.html,36.8017,66.5334,Asia/Kabul,
qarahghu,https://wetter.com/afghanistan/qarahghu/AF1129682.html,36.0131,65.5073,Asia/Kabul,
faizabad,https://wetter.com/afghanistan/faizabad/AF1142176.html,32.6186,63.7453,Asia/Kabul,
mingajik-e-farari,https://wetter.com/afghanistan/mingajik-e-farari/AF1133320.html,36.9203,66.1116,Asia/Kabul,
un-paykal,https://wetter.com/afghanistan/un-paykal/AF1131491.html,36.9152,66.413,Asia/Kabul,
yandarak,https://wetter.com/afghanistan/yandarak/AF1121280.html,36.8491,66.4712,Asia/Kabul,
yang-ariq,https://wetter.com/afghanistan/yang-ariq/AF1121279.html,36.905,66.1456,Asia/Kabul,
yandagh-ariq,https://wetter.com/afghanistan/yandagh-ariq/AF1475363.html,36.8447,66.248,Asia/Kabul,
anar-darah,https://wetter.com/afghanistan/anar-darah/AF1148709.html,32.7587,61.654,Asia/Kabul,
koh-darah,https://wetter.com/afghanistan/koh-darah/AF1440046.html,33.0175,63.8431,Asia/Kabul,
gulogah,https://wetter.com/afghanistan/gulogah/AF1120492.html,33.3525,61.2508,Asia/Kabul,
galwanan,https://wetter.com/afghanistan/galwanan/AF1423426.html,35.109,69.3264,Asia/Kabul,
tunikah,https://wetter.com/afghanistan/tunikah/AF1122159.html,36.6079,65.7954,Asia/Kabul,
pasinj,https://wetter.com/afghanistan/pasinj/AF1131027.html,32.8624,63.8777,Asia/Kabul,
quchanghi,https://wetter.com/afghanistan/quchanghi/AF1129013.html,34.0618,66.278,Asia/Kabul,
sar-e-qul,https://wetter.com/afghanistan/sar-e-qul/AF1449112.html,33.8673,66.2769,Asia/Kabul,
siyah-sang,https://wetter.com/afghanistan/siyah-sang/AF1455883.html,34.8656,68.1766,Asia/Kabul,
sultali,https://wetter.com/afghanistan/sultali/AF1462467.html,34.2769,67.157,Asia/Kabul,
zayaman,https://wetter.com/afghanistan/zayaman/AF1120759.html,34.8549,68.1227,Asia/Kabul,
zard-qol,https://wetter.com/afghanistan/zard-qol/AF1120901.html,34.0317,66.9514,Asia/Kabul,
ali-sher-alaqahdari,https://wetter.com/afghanistan/ali-sher-alaqahdari/AF1148893.html,33.4362,70.0671,Asia/Kabul,
abdullah-jan-kili,https://wetter.com/afghanistan/abdullah-jan-kili/AF1452701.html,33.3797,70.0294,Asia/Kabul,
asar,https://wetter.com/afghanistan/asar/AF1148302.html,33.3925,69.8376,Asia/Kabul,
alim-gul,https://wetter.com/afghanistan/alim-gul/AF1452318.html,33.5125,70.0175,Asia/Kabul,
sistan,https://wetter.com/afghanistan/sistan/AF1124307.html,33.9503,67.0363,Asia/Kabul,
biland-wakil,https://wetter.com/afghanistan/biland-wakil/AF1434504.html,33.3079,69.7046,Asia/Kabul,
faqiri-kelay,https://wetter.com/afghanistan/faqiri-kelay/AF1142273.html,33.232,69.8524,Asia/Kabul,
dilpuri,https://wetter.com/afghanistan/dilpuri/AF1434517.html,33.3011,69.7386,Asia/Kabul,
gidarah,https://wetter.com/afghanistan/gidarah/AF1434518.html,33.2981,69.7465,Asia/Kabul,
arsanah,https://wetter.com/afghanistan/arsanah/AF1434567.html,33.3009,69.8371,Asia/Kabul,
giskon,https://wetter.com/afghanistan/giskon/AF1141531.html,33.1235,69.5136,Asia/Kabul,
purikah,https://wetter.com/afghanistan/purikah/AF1130476.html,33.456,69.8276,Asia/Kabul,
sash-khel,https://wetter.com/afghanistan/sash-khel/AF1126762.html,33.3694,69.9138,Asia/Kabul,
muhammad-amin-kotkey,https://wetter.com/afghanistan/muhammad-amin-kotkey/AF1434589.html,33.2815,69.9107,Asia/Kabul,
isma-il-khel,https://wetter.com/afghanistan/isma-il-khel/AF1434523.html,33.2717,69.7787,Asia/Kabul,
khatin-khel,https://wetter.com/afghanistan/khatin-khel/AF1434392.html,33.1727,69.5459,Asia/Kabul,
shar-e-takhari,https://wetter.com/afghanistan/shar-e-takhari/AF1127052.html,34.1109,66.9295,Asia/Kabul,
qal-ah-ye-dadar,https://wetter.com/afghanistan/qal-ah-ye-dadar/AF1130015.html,34.798,67.7775,Asia/Kabul,
kadalak,https://wetter.com/afghanistan/kadalak/AF1138897.html,34.8445,67.6447,Asia/Kabul,
daraz-gaw-khanah,https://wetter.com/afghanistan/daraz-gaw-khanah/AF1144112.html,34.3225,67.1344,Asia/Kabul,
gardolah,https://wetter.com/afghanistan/gardolah/AF1141853.html,34.4313,66.5866,Asia/Kabul,
khudaydad-khel,https://wetter.com/afghanistan/khudaydad-khel/AF1136604.html,35.1784,67.6876,Asia/Kabul,
gabari,https://wetter.com/afghanistan/gabari/AF1457352.html,34.8308,67.7931,Asia/Kabul,
bulolah,https://wetter.com/afghanistan/bulolah/AF1146336.html,34.8771,68.0879,Asia/Kabul,
khitay,https://wetter.com/afghanistan/khitay/AF1462169.html,34.2126,67.2427,Asia/Kabul,
gardan-kilak,https://wetter.com/afghanistan/gardan-kilak/AF1141872.html,34.0863,66.7818,Asia/Kabul,
sarabi,https://wetter.com/afghanistan/sarabi/AF1127434.html,34.2011,66.8096,Asia/Kabul,
chihil-dukhtaran,https://wetter.com/afghanistan/chihil-dukhtaran/AF1145190.html,34.6712,67.0455,Asia/Kabul,
pas-e-koh,https://wetter.com/afghanistan/pas-e-koh/AF1131030.html,35.1254,66.387,Asia/Kabul,
naw-gholi,https://wetter.com/afghanistan/naw-gholi/AF1132071.html,34.1681,66.4899,Asia/Kabul,
sag-sokhtah,https://wetter.com/afghanistan/sag-sokhtah/AF1461993.html,34.2864,67.2746,Asia/Kabul,
baraki,https://wetter.com/afghanistan/baraki/AF1147070.html,34.1288,66.7505,Asia/Kabul,
hazar-chashmah,https://wetter.com/afghanistan/hazar-chashmah/AF1140115.html,35.3018,67.0057,Asia/Kabul,
amrod-e-ulya,https://wetter.com/afghanistan/amrod-e-ulya/AF1458105.html,34.2008,66.9519,Asia/Kabul,
deh-e-now,https://wetter.com/afghanistan/deh-e-now/AF1457997.html,34.3841,66.8773,Asia/Kabul,
ru-ye-sang,https://wetter.com/afghanistan/ru-ye-sang/AF1128186.html,35.32,67.6339,Asia/Kabul,
katah-bayd,https://wetter.com/afghanistan/katah-bayd/AF1137723.html,35.0971,66.4529,Asia/Kabul,
kajran,https://wetter.com/afghanistan/kajran/AF1138714.html,33.2036,65.4731,Asia/Kabul,
dwah-manday,https://wetter.com/afghanistan/dwah-manday/AF1143782.html,33.2816,69.5853,Asia/Kabul,
sherghak-kelay,https://wetter.com/afghanistan/sherghak-kelay/AF1434457.html,33.2527,69.7791,Asia/Kabul,
besarak,https://wetter.com/afghanistan/besarak/AF1437918.html,33.8885,66.8504,Asia/Kabul,
awchak,https://wetter.com/afghanistan/awchak/AF1148053.html,33.8182,65.8808,Asia/Kabul,
bar-e-zar,https://wetter.com/afghanistan/bar-e-zar/AF1449058.html,33.9439,66.3763,Asia/Kabul,
khadir,https://wetter.com/afghanistan/khadir/AF1348242.html,33.9223,65.934,Asia/Kabul,
darah,https://wetter.com/afghanistan/darah/AF1437901.html,33.9287,66.7431,Asia/Kabul,
bargir,https://wetter.com/afghanistan/bargir/AF1146966.html,33.3731,65.7919,Asia/Kabul,
darah,https://wetter.com/afghanistan/darah/AF1449212.html,33.8015,66.0488,Asia/Kabul,
kowkak,https://wetter.com/afghanistan/kowkak/AF1137603.html,33.7087,65.8121,Asia/Kabul,
zhandar-garay,https://wetter.com/afghanistan/zhandar-garay/AF1120674.html,33.2092,69.5271,Asia/Kabul,
diwros,https://wetter.com/afghanistan/diwros/AF1449109.html,33.8939,66.2706,Asia/Kabul,
chowney,https://wetter.com/afghanistan/chowney/AF1448087.html,33.3828,66.2723,Asia/Kabul,
paytow,https://wetter.com/afghanistan/paytow/AF1130567.html,33.4367,65.8972,Asia/Kabul,
rast-kaman,https://wetter.com/afghanistan/rast-kaman/AF1128486.html,34.1622,66.3895,Asia/Kabul,
now-jok,https://wetter.com/afghanistan/now-jok/AF1132065.html,34.0024,66.265,Asia/Kabul,
naw-e-sirak,https://wetter.com/afghanistan/naw-e-sirak/AF1456318.html,34.212,66.206,Asia/Kabul,
qar-i,https://wetter.com/afghanistan/qar-i/AF1449161.html,33.907,66.1189,Asia/Kabul,
sar-e-pul,https://wetter.com/afghanistan/sar-e-pul/AF1127114.html,34.0396,66.2473,Asia/Kabul,
menah,https://wetter.com/afghanistan/menah/AF1449158.html,33.9089,66.1086,Asia/Kabul,
folad,https://wetter.com/afghanistan/folad/AF1142137.html,33.7708,66.8562,Asia/Kabul,
lezhi-kelay,https://wetter.com/afghanistan/lezhi-kelay/AF1134635.html,33.2036,69.8618,Asia/Kabul,
zor-kot,https://wetter.com/afghanistan/zor-kot/AF1120471.html,33.5415,69.7345,Asia/Kabul,
zakar-khel,https://wetter.com/afghanistan/zakar-khel/AF1121104.html,33.2594,70.2053,Asia/Kabul,
khulbisat,https://wetter.com/afghanistan/khulbisat/AF1136414.html,33.4948,70.0061,Asia/Kabul,
wali-gul-kelay,https://wetter.com/afghanistan/wali-gul-kelay/AF1434456.html,33.2464,69.7867,Asia/Kabul,
shaykh-amir-kelay,https://wetter.com/afghanistan/shaykh-amir-kelay/AF1125267.html,33.2874,69.9128,Asia/Kabul,
lmarah,https://wetter.com/afghanistan/lmarah/AF1142561.html,33.3028,69.6389,Asia/Kabul,
melan,https://wetter.com/afghanistan/melan/AF1133569.html,33.1185,69.74,Asia/Kabul,
mochai,https://wetter.com/afghanistan/mochai/AF1132708.html,33.6057,69.6842,Asia/Kabul,
sarwar-kelay,https://wetter.com/afghanistan/sarwar-kelay/AF1434609.html,33.3256,69.9969,Asia/Kabul,
prekaray-khartsin,https://wetter.com/afghanistan/prekaray-khartsin/AF1130406.html,33.2699,70.092,Asia/Kabul,
zambar,https://wetter.com/afghanistan/zambar/AF1121073.html,33.5646,69.8816,Asia/Kabul,
shamal-khel,https://wetter.com/afghanistan/shamal-khel/AF1345525.html,33.5371,70.0073,Asia/Kabul,
tatrah,https://wetter.com/afghanistan/tatrah/AF1425250.html,33.3882,70.1037,Asia/Kabul,
sardar-khan-kili,https://wetter.com/afghanistan/sardar-khan-kili/AF1452951.html,33.1525,69.9961,Asia/Kabul,
tilgar,https://wetter.com/afghanistan/tilgar/AF1122539.html,33.4253,69.7937,Asia/Kabul,
sperah,https://wetter.com/afghanistan/sperah/AF1123935.html,33.202,69.5152,Asia/Kabul,
worghar,https://wetter.com/afghanistan/worghar/AF1434397.html,33.1837,69.7033,Asia/Kabul,
tore-obeh,https://wetter.com/afghanistan/tore-obeh/AF1122260.html,33.4176,70.1347,Asia/Kabul,
wurdah-khel,https://wetter.com/afghanistan/wurdah-khel/AF1434622.html,33.3644,69.9271,Asia/Kabul,
wurzi,https://wetter.com/afghanistan/wurzi/AF1121433.html,33.3641,69.7946,Asia/Kabul,
khost,https://wetter.com/afghanistan/khost/AF1136469.html,33.3395,69.9204,Asia/Kabul,
chahi-khel,https://wetter.com/afghanistan/chahi-khel/AF1472356.html,34.9723,69.7927,Asia/Kabul,
arghestan,https://wetter.com/afghanistan/arghestan/AF1148390.html,31.5598,66.4893,Asia/Kabul,
malikar,https://wetter.com/afghanistan/malikar/AF1134164.html,35.0934,69.4818,Asia/Kabul,
qal-ah-ye-muhammad-wais-khan,https://wetter.com/afghanistan/qal-ah-ye-muhammad-wais-khan/AF1469196.html,34.3865,69.1346,Asia/Kabul,
chakhansur,https://wetter.com/afghanistan/chakhansur/AF1145581.html,31.1752,62.0645,Asia/Kabul,
shah-qadam,https://wetter.com/afghanistan/shah-qadam/AF1125911.html,34.4319,68.8845,Asia/Kabul,
rash,https://wetter.com/afghanistan/rash/AF1128521.html,34.5905,67.628,Asia/Kabul,
wurburguj,https://wetter.com/afghanistan/wurburguj/AF1475619.html,34.5808,67.5623,Asia/Kabul,
halim-shar,https://wetter.com/afghanistan/halim-shar/AF1140280.html,33.7304,68.2976,Asia/Kabul,
gird-olang,https://wetter.com/afghanistan/gird-olang/AF1475601.html,34.5721,67.5153,Asia/Kabul,
zargaran,https://wetter.com/afghanistan/zargaran/AF1349845.html,34.7876,69.0588,Asia/Kabul,
lalkay,https://wetter.com/afghanistan/lalkay/AF1134916.html,33.8739,68.4167,Asia/Kabul,
ziaratak,https://wetter.com/afghanistan/ziaratak/AF1120636.html,34.5709,67.7048,Asia/Kabul,
dahan-e-darah-bayd,https://wetter.com/afghanistan/dahan-e-darah-bayd/AF1144639.html,34.6747,68.2972,Asia/Kabul,
qal-ah-ye-sangi,https://wetter.com/afghanistan/qal-ah-ye-sangi/AF1456951.html,34.3358,68.8968,Asia/Kabul,
gardan-dewal,https://wetter.com/afghanistan/gardan-dewal/AF1141891.html,34.5098,68.2609,Asia/Kabul,
ulyad,https://wetter.com/afghanistan/ulyad/AF1475691.html,34.5066,67.7411,Asia/Kabul,
maydanshakhr,https://wetter.com/afghanistan/maydanshakhr/AF1456960.html,34.3956,68.8662,Asia/Kabul,
tir-muhammad,https://wetter.com/afghanistan/tir-muhammad/AF1122498.html,34.099,68.3345,Asia/Kabul,
kalan-deh,https://wetter.com/afghanistan/kalan-deh/AF1138590.html,33.8368,68.4023,Asia/Kabul,
kalakan,https://wetter.com/afghanistan/kalakan/AF1138636.html,34.7837,69.15,Asia/Kabul,
khur-kabul,https://wetter.com/afghanistan/khur-kabul/AF1135987.html,34.3862,69.3853,Asia/Kabul,
marano-zowar,https://wetter.com/afghanistan/marano-zowar/AF1469412.html,34.3084,69.4314,Asia/Kabul,
sahabuddin-kala,https://wetter.com/afghanistan/sahabuddin-kala/AF1349682.html,34.9194,69.1417,Asia/Kabul,
bokkham,https://wetter.com/afghanistan/bokkham/AF1423419.html,35.1128,69.3,Asia/Kabul,
jar-e-khushkak,https://wetter.com/afghanistan/jar-e-khushkak/AF1464695.html,35.077,68.7914,Asia/Kabul,
gulghundi,https://wetter.com/afghanistan/gulghundi/AF1423366.html,35.0191,69.1511,Asia/Kabul,
rangan,https://wetter.com/afghanistan/rangan/AF1128544.html,35.0056,68.8104,Asia/Kabul,
dahan-e-lor,https://wetter.com/afghanistan/dahan-e-lor/AF1144491.html,35.0493,68.7678,Asia/Kabul,
pas-deh,https://wetter.com/afghanistan/pas-deh/AF1454898.html,34.8616,68.7345,Asia/Kabul,
zeni,https://wetter.com/afghanistan/zeni/AF1120709.html,35.39,69.67,Asia/Kabul,
ahingaran,https://wetter.com/afghanistan/ahingaran/AF1469134.html,34.3623,69.2025,Asia/Kabul,
gaz-e-ulya,https://wetter.com/afghanistan/gaz-e-ulya/AF1141634.html,34.7773,69.8443,Asia/Kabul,
cham,https://wetter.com/afghanistan/cham/AF1145530.html,34.7626,69.4963,Asia/Kabul,
siyahgird,https://wetter.com/afghanistan/siyahgird/AF1124621.html,35.0055,68.8558,Asia/Kabul,
ashraf-khel,https://wetter.com/afghanistan/ashraf-khel/AF1349726.html,34.8766,69.2361,Asia/Kabul,
chakaray,https://wetter.com/afghanistan/chakaray/AF1145605.html,34.341,69.4377,Asia/Kabul,
jalah-wanan,https://wetter.com/afghanistan/jalah-wanan/AF1473064.html,34.6071,69.7461,Asia/Kabul,
rajan,https://wetter.com/afghanistan/rajan/AF1128590.html,34.2422,69.4474,Asia/Kabul,
shinwar,https://wetter.com/afghanistan/shinwar/AF1125095.html,34.3312,69.6157,Asia/Kabul,
chahar-dehi,https://wetter.com/afghanistan/chahar-dehi/AF1438583.html,33.8896,68.6308,Asia/Kabul,
iskan-darah,https://wetter.com/afghanistan/iskan-darah/AF1142433.html,34.8476,69.4858,Asia/Kabul,
toghay-e-mushi,https://wetter.com/afghanistan/toghay-e-mushi/AF1122386.html,34.3706,67.4621,Asia/Kabul,
dahan-e-sikandar,https://wetter.com/afghanistan/dahan-e-sikandar/AF1459007.html,34.4922,68.2029,Asia/Kabul,
sekzi,https://wetter.com/afghanistan/sekzi/AF1125199.html,33.0259,65.5076,Asia/Kabul,
now-joy,https://wetter.com/afghanistan/now-joy/AF1131720.html,32.9846,65.7116,Asia/Kabul,
hutah,https://wetter.com/afghanistan/hutah/AF1139875.html,33.1454,66.1461,Asia/Kabul,
badam-kelay,https://wetter.com/afghanistan/badam-kelay/AF1147729.html,34.2438,68.7872,Asia/Kabul,
markaz-e-sayyidabad,https://wetter.com/afghanistan/markaz-e-sayyidabad/AF1126263.html,34.0004,68.7135,Asia/Kabul,
arab-khel,https://wetter.com/afghanistan/arab-khel/AF1148488.html,34.0062,68.7209,Asia/Kabul,
rijwani,https://wetter.com/afghanistan/rijwani/AF1449884.html,32.6443,65.9164,Asia/Kabul,
ghornay,https://wetter.com/afghanistan/ghornay/AF1444139.html,32.783,65.2831,Asia/Kabul,
niazi,https://wetter.com/afghanistan/niazi/AF1131587.html,32.8557,66.0082,Asia/Kabul,
taghar,https://wetter.com/afghanistan/taghar/AF1453895.html,32.6433,65.8345,Asia/Kabul,
chakah-joy,https://wetter.com/afghanistan/chakah-joy/AF1145621.html,32.7876,66.4676,Asia/Kabul,
potai,https://wetter.com/afghanistan/potai/AF1130416.html,32.638,65.5971,Asia/Kabul,
uruzgan,https://wetter.com/afghanistan/uruzgan/AF1131462.html,32.9278,66.6325,Asia/Kabul,
chah-ab,https://wetter.com/afghanistan/chah-ab/AF1145897.html,37.3977,69.8146,Asia/Kabul,
sharqi-charmgar,https://wetter.com/afghanistan/sharqi-charmgar/AF1449873.html,32.6407,65.8674,Asia/Kabul,
war-jan,https://wetter.com/afghanistan/war-jan/AF1121709.html,32.4187,65.3343,Asia/Kabul,
kowri,https://wetter.com/afghanistan/kowri/AF1449876.html,32.6631,65.9899,Asia/Kabul,
langar,https://wetter.com/afghanistan/langar/AF1134815.html,32.6712,65.1956,Asia/Kabul,
karbulaq,https://wetter.com/afghanistan/karbulaq/AF1138179.html,32.7307,65.233,Asia/Kabul,
landi-chinar,https://wetter.com/afghanistan/landi-chinar/AF1134822.html,32.6827,65.2247,Asia/Kabul,
pokah,https://wetter.com/afghanistan/pokah/AF1130394.html,34.4915,68.3665,Asia/Kabul,
dewalak,https://wetter.com/afghanistan/dewalak/AF1459075.html,34.3396,68.1024,Asia/Kabul,
ag,https://wetter.com/afghanistan/ag/AF1461979.html,34.3547,67.4566,Asia/Kabul,
bari-qol,https://wetter.com/afghanistan/bari-qol/AF1146916.html,34.3966,68.3004,Asia/Kabul,
chito,https://wetter.com/afghanistan/chito/AF1458814.html,34.2248,68.3722,Asia/Kabul,
wuliad,https://wetter.com/afghanistan/wuliad/AF1459062.html,34.3801,68.1569,Asia/Kabul,
miran,https://wetter.com/afghanistan/miran/AF1133279.html,34.2204,68.3126,Asia/Kabul,
tsineza-i,https://wetter.com/afghanistan/tsineza-i/AF1122215.html,34.3577,68.7242,Asia/Kabul,
wersek,https://wetter.com/afghanistan/wersek/AF1121509.html,34.005,68.8133,Asia/Kabul,
qaryah-ye-baki,https://wetter.com/afghanistan/qaryah-ye-baki/AF1147394.html,32.932,66.8914,Asia/Kabul,
warnay,https://wetter.com/afghanistan/warnay/AF1442533.html,33.0532,66.7782,Asia/Kabul,
nowmadah,https://wetter.com/afghanistan/nowmadah/AF1131705.html,33.0957,65.5356,Asia/Kabul,
sewak,https://wetter.com/afghanistan/sewak/AF1126314.html,33.1155,66.8489,Asia/Kabul,
siyah-chob,https://wetter.com/afghanistan/siyah-chob/AF1124659.html,34.0496,68.6995,Asia/Kabul,
jalrez,https://wetter.com/afghanistan/jalrez/AF1139683.html,34.4708,68.6544,Asia/Kabul,
bayram,https://wetter.com/afghanistan/bayram/AF1459052.html,34.4003,68.0554,Asia/Kabul,
dasht,https://wetter.com/afghanistan/dasht/AF1461915.html,34.4757,67.3749,Asia/Kabul,
dahan-e-ojay,https://wetter.com/afghanistan/dahan-e-ojay/AF1460308.html,34.194,67.9243,Asia/Kabul,
bagram,https://wetter.com/afghanistan/bagram/AF1147513.html,34.9669,69.265,Asia/Kabul,
ghulam-ali,https://wetter.com/afghanistan/ghulam-ali/AF1349513.html,34.9508,69.2287,Asia/Kabul,
nurjan-kala,https://wetter.com/afghanistan/nurjan-kala/AF1131619.html,34.9029,69.1518,Asia/Kabul,
sahraw,https://wetter.com/afghanistan/sahraw/AF1423228.html,35.2054,69.3641,Asia/Kabul,
deh-iskabu,https://wetter.com/afghanistan/deh-iskabu/AF1429550.html,35.498,69.8099,Asia/Kabul,
bala-chumar,https://wetter.com/afghanistan/bala-chumar/AF1147370.html,35.6848,70.1212,Asia/Kabul,
now-dahanak,https://wetter.com/afghanistan/now-dahanak/AF1132127.html,35.624,70.0051,Asia/Kabul,
papsi,https://wetter.com/afghanistan/papsi/AF1131123.html,35.6913,70.083,Asia/Kabul,
aryu,https://wetter.com/afghanistan/aryu/AF1148413.html,35.5264,69.9492,Asia/Kabul,
khinj,https://wetter.com/afghanistan/khinj/AF1136737.html,35.429,69.7348,Asia/Kabul,
astana,https://wetter.com/afghanistan/astana/AF1148173.html,35.3506,69.5665,Asia/Kabul,
powat,https://wetter.com/afghanistan/powat/AF1429535.html,35.4289,69.7407,Asia/Kabul,
manjadar,https://wetter.com/afghanistan/manjadar/AF1133937.html,35.4321,69.6688,Asia/Kabul,
qal-ah-ye-parian,https://wetter.com/afghanistan/qal-ah-ye-parian/AF1456049.html,35.6208,70.0059,Asia/Kabul,
rashtak,https://wetter.com/afghanistan/rashtak/AF1128497.html,35.3867,69.6632,Asia/Kabul,
andarabisat,https://wetter.com/afghanistan/andarabisat/AF1423258.html,35.2005,69.2774,Asia/Kabul,
zmik,https://wetter.com/afghanistan/zmik/AF1120568.html,32.3779,68.2633,Asia/Kabul,
pas-e-shah-e-mardan,https://wetter.com/afghanistan/pas-e-shah-e-mardan/AF1131022.html,35.4901,69.8165,Asia/Kabul,
ganda,https://wetter.com/afghanistan/ganda/AF1423196.html,35.2364,69.2966,Asia/Kabul,
rakh,https://wetter.com/afghanistan/rakh/AF1128582.html,35.4433,69.7166,Asia/Kabul,
qal-ah-ye-miram-shah,https://wetter.com/afghanistan/qal-ah-ye-miram-shah/AF1129908.html,35.2312,69.3581,Asia/Kabul,
parakh,https://wetter.com/afghanistan/parakh/AF1131118.html,35.285,69.4849,Asia/Kabul,
zarah-sharan,https://wetter.com/afghanistan/zarah-sharan/AF1120879.html,33.1464,68.7921,Asia/Kabul,
hasti,https://wetter.com/afghanistan/hasti/AF1140175.html,32.6936,68.3456,Asia/Kabul,
wuley,https://wetter.com/afghanistan/wuley/AF1121540.html,32.5278,68.4403,Asia/Kabul,
rasul-khan,https://wetter.com/afghanistan/rasul-khan/AF1128485.html,32.6433,68.4109,Asia/Kabul,
lawang-khan-kelay,https://wetter.com/afghanistan/lawang-khan-kelay/AF1134684.html,32.5777,68.4623,Asia/Kabul,
khoshamand,https://wetter.com/afghanistan/khoshamand/AF1135980.html,32.6857,68.238,Asia/Kabul,
kelay,https://wetter.com/afghanistan/kelay/AF1138549.html,32.6418,68.0189,Asia/Kabul,
sharan,https://wetter.com/afghanistan/sharan/AF8534261.html,33.1757,68.7305,Asia/Kabul,
tsirey-chinah,https://wetter.com/afghanistan/tsirey-chinah/AF1144839.html,32.3381,68.388,Asia/Kabul,
zarghun-shahr,https://wetter.com/afghanistan/zarghun-shahr/AF1120863.html,32.8473,68.4457,Asia/Kabul,
bazarak,https://wetter.com/afghanistan/bazarak/AF1429434.html,35.3129,69.5152,Asia/Kabul,
anjuman,https://wetter.com/afghanistan/anjuman/AF1429543.html,35.4405,69.7023,Asia/Kabul,
gowinj,https://wetter.com/afghanistan/gowinj/AF1423117.html,35.3688,69.4746,Asia/Kabul,
danganah,https://wetter.com/afghanistan/danganah/AF1144165.html,35.3421,69.4978,Asia/Kabul,
baran-khel,https://wetter.com/afghanistan/baran-khel/AF1147038.html,35.2566,69.4573,Asia/Kabul,
dashtak,https://wetter.com/afghanistan/dashtak/AF1423535.html,35.251,69.4423,Asia/Kabul,
unabah,https://wetter.com/afghanistan/unabah/AF1148695.html,35.2325,69.3772,Asia/Kabul,
ziruk-alaqahdari,https://wetter.com/afghanistan/ziruk-alaqahdari/AF1435007.html,33.1581,69.3128,Asia/Kabul,
barak,https://wetter.com/afghanistan/barak/AF1147089.html,35.3623,69.6089,Asia/Kabul,
pini,https://wetter.com/afghanistan/pini/AF1130754.html,35.2424,69.5398,Asia/Kabul,
kiraman,https://wetter.com/afghanistan/kiraman/AF1429521.html,35.2973,69.6813,Asia/Kabul,
shalkachah,https://wetter.com/afghanistan/shalkachah/AF1125716.html,35.6828,70.0542,Asia/Kabul,
shalzor,https://wetter.com/afghanistan/shalzor/AF1125709.html,35.7385,70.1657,Asia/Kabul,
langar-khana,https://wetter.com/afghanistan/langar-khana/AF1423191.html,35.2447,69.1761,Asia/Kabul,
qal-ah-ye-ata,https://wetter.com/afghanistan/qal-ah-ye-ata/AF1455476.html,34.7635,68.4906,Asia/Kabul,
no-man-khel,https://wetter.com/afghanistan/no-man-khel/AF1131798.html,34.8957,69.4235,Asia/Kabul,
saqa,https://wetter.com/afghanistan/saqa/AF1127466.html,34.9504,68.5163,Asia/Kabul,
kochak-e-dahan-e-sumucha,https://wetter.com/afghanistan/kochak-e-dahan-e-sumucha/AF1135454.html,34.7767,68.5234,Asia/Kabul,
angur-darah,https://wetter.com/afghanistan/angur-darah/AF1148644.html,34.777,69.448,Asia/Kabul,
wiwa,https://wetter.com/afghanistan/wiwa/AF1423152.html,35.2992,69.1686,Asia/Kabul,
qal-ah-ye-nadir-shah,https://wetter.com/afghanistan/qal-ah-ye-nadir-shah/AF1455488.html,34.7572,68.3633,Asia/Kabul,
khushk-qol,https://wetter.com/afghanistan/khushk-qol/AF1349899.html,34.7015,69.4643,Asia/Kabul,
wurdah-guli,https://wetter.com/afghanistan/wurdah-guli/AF1121841.html,34.9797,68.3102,Asia/Kabul,
qonaq,https://wetter.com/afghanistan/qonaq/AF1454855.html,34.8137,68.6176,Asia/Kabul,
chinar,https://wetter.com/afghanistan/chinar/AF1145117.html,34.69,69.8249,Asia/Kabul,
tscharikar,https://wetter.com/afghanistan/tscharikar/AF1145352.html,35.0136,69.1714,Asia/Kabul,
qashqal,https://wetter.com/afghanistan/qashqal/AF1125362.html,35.0398,69.0069,Asia/Kabul,
khanahha-ye-ghulam-haidar,https://wetter.com/afghanistan/khanahha-ye-ghulam-haidar/AF1137142.html,34.9956,69.0656,Asia/Kabul,
qarah-ye-fazil,https://wetter.com/afghanistan/qarah-ye-fazil/AF1454879.html,34.7955,68.6604,Asia/Kabul,
dandar,https://wetter.com/afghanistan/dandar/AF1144185.html,34.791,69.475,Asia/Kabul,
tarinkot,https://wetter.com/afghanistan/tarinkot/AF1122747.html,32.63,65.8781,Asia/Kabul,
nas-darah,https://wetter.com/afghanistan/nas-darah/AF1349735.html,34.8897,69.4713,Asia/Kabul,
gandab,https://wetter.com/afghanistan/gandab/AF1141993.html,34.8993,68.6006,Asia/Kabul,
sata,https://wetter.com/afghanistan/sata/AF1429433.html,35.3173,69.5118,Asia/Kabul,
wuru,https://wetter.com/afghanistan/wuru/AF1429421.html,35.3521,69.5966,Asia/Kabul,
pizgaran,https://wetter.com/afghanistan/pizgaran/AF1130699.html,35.2772,69.6472,Asia/Kabul,
golbahar,https://wetter.com/afghanistan/golbahar/AF1140833.html,35.1336,69.3015,Asia/Kabul,
yakah-bayd,https://wetter.com/afghanistan/yakah-bayd/AF1121410.html,35.2101,69.7653,Asia/Kabul,
tajikan,https://wetter.com/afghanistan/tajikan/AF1123291.html,35.2305,69.4177,Asia/Kabul,
jabal-os-saraj,https://wetter.com/afghanistan/jabal-os-saraj/AF1139807.html,35.1183,69.2378,Asia/Kabul,
waghlu,https://wetter.com/afghanistan/waghlu/AF1429407.html,35.3667,69.6356,Asia/Kabul,
bagh-e-maidan,https://wetter.com/afghanistan/bagh-e-maidan/AF1423264.html,35.2216,69.214,Asia/Kabul,
gul-mirza-khel,https://wetter.com/afghanistan/gul-mirza-khel/AF1423400.html,35.1408,69.2797,Asia/Kabul,
ibrahim-khan,https://wetter.com/afghanistan/ibrahim-khan/AF1423451.html,35.0535,69.2565,Asia/Kabul,
sang-e-khan,https://wetter.com/afghanistan/sang-e-khan/AF1127609.html,35.2475,69.7266,Asia/Kabul,
akhtaj,https://wetter.com/afghanistan/akhtaj/AF1423468.html,35.0411,69.2589,Asia/Kabul,
wakhi,https://wetter.com/afghanistan/wakhi/AF1121802.html,35.5253,69.8782,Asia/Kabul,
tund-khuy,https://wetter.com/afghanistan/tund-khuy/AF1122164.html,35.2612,69.6342,Asia/Kabul,
dahan-e-jarf,https://wetter.com/afghanistan/dahan-e-jarf/AF1455430.html,34.9289,68.4627,Asia/Kabul,
gardanah-ye-sang,https://wetter.com/afghanistan/gardanah-ye-sang/AF1141880.html,34.8584,68.5126,Asia/Kabul,
til-e-panjshayr,https://wetter.com/afghanistan/til-e-panjshayr/AF1122541.html,35.5615,69.856,Asia/Kabul,
adozi,https://wetter.com/afghanistan/adozi/AF1149381.html,33.0976,66.7677,Asia/Kabul,
beyraq,https://wetter.com/afghanistan/beyraq/AF1146510.html,32.9134,66.8114,Asia/Kabul,
alar,https://wetter.com/afghanistan/alar/AF1450183.html,32.9169,66.5491,Asia/Kabul,
wutah-ye-zagh,https://wetter.com/afghanistan/wutah-ye-zagh/AF1121499.html,35.8709,67.1314,Asia/Kabul,
royanchah,https://wetter.com/afghanistan/royanchah/AF1128255.html,36.1424,67.82,Asia/Kabul,
irakli,https://wetter.com/afghanistan/irakli/AF1466415.html,36.242,68.0392,Asia/Kabul,
langar,https://wetter.com/afghanistan/langar/AF1422873.html,35.9947,68.0508,Asia/Kabul,
zaygolak-e-folad,https://wetter.com/afghanistan/zaygolak-e-folad/AF1120755.html,35.846,67.1128,Asia/Kabul,
utah-kiti,https://wetter.com/afghanistan/utah-kiti/AF1131424.html,36.1853,67.5105,Asia/Kabul,
galahwan-say,https://wetter.com/afghanistan/galahwan-say/AF1142042.html,36.0404,67.3495,Asia/Kabul,
ruy-duab-wuluswali,https://wetter.com/afghanistan/ruy-duab-wuluswali/AF1128213.html,35.5597,67.827,Asia/Kabul,
aibak,https://wetter.com/afghanistan/aibak/AF1127768.html,36.2647,68.0155,Asia/Kabul,
kuhnah-samangan-e-kalan,https://wetter.com/afghanistan/kuhnah-samangan-e-kalan/AF1135782.html,36.297,67.9458,Asia/Kabul,
kundah-ye-kalan,https://wetter.com/afghanistan/kundah-ye-kalan/AF1135291.html,36.0197,68.063,Asia/Kabul,
surkh-bilandi,https://wetter.com/afghanistan/surkh-bilandi/AF1349934.html,34.6847,69.0286,Asia/Kabul,
tukan-awar,https://wetter.com/afghanistan/tukan-awar/AF1122378.html,36.1271,67.457,Asia/Kabul,
chamkoli,https://wetter.com/afghanistan/chamkoli/AF1466283.html,36.028,67.4044,Asia/Kabul,
lab-abi,https://wetter.com/afghanistan/lab-abi/AF1466279.html,36.0485,67.4104,Asia/Kabul,
chamkuli,https://wetter.com/afghanistan/chamkuli/AF1145509.html,36.0444,67.3875,Asia/Kabul,
yalman,https://wetter.com/afghanistan/yalman/AF1121299.html,36.1049,67.641,Asia/Kabul,
duab,https://wetter.com/afghanistan/duab/AF1142964.html,35.5628,67.8219,Asia/Kabul,
saiad,https://wetter.com/afghanistan/saiad/AF1127935.html,36.0702,67.2274,Asia/Kabul,
wuljah-quduq,https://wetter.com/afghanistan/wuljah-quduq/AF1121466.html,35.9355,67.1538,Asia/Kabul,
kuh-e-khoshk,https://wetter.com/afghanistan/kuh-e-khoshk/AF1466529.html,35.3817,66.5128,Asia/Kabul,
sang-e-charak,https://wetter.com/afghanistan/sang-e-charak/AF1127628.html,35.8497,66.4369,Asia/Kabul,
ab-khor,https://wetter.com/afghanistan/ab-khor/AF1149510.html,35.8612,66.567,Asia/Kabul,
sadlar,https://wetter.com/afghanistan/sadlar/AF1128061.html,35.4696,66.4963,Asia/Kabul,
chiras,https://wetter.com/afghanistan/chiras/AF1144942.html,35.4167,65.9823,Asia/Kabul,
tukzar,https://wetter.com/afghanistan/tukzar/AF1120487.html,35.9483,66.4213,Asia/Kabul,
gich,https://wetter.com/afghanistan/gich/AF1140928.html,35.655,66.8529,Asia/Kabul,
taghay-e-khwajah-sufla,https://wetter.com/afghanistan/taghay-e-khwajah-sufla/AF1123360.html,35.9704,66.372,Asia/Kabul,
jowzari,https://wetter.com/afghanistan/jowzari/AF1466532.html,35.3914,66.5782,Asia/Kabul,
zayduri,https://wetter.com/afghanistan/zayduri/AF1120760.html,35.8633,67.4704,Asia/Kabul,
larkird,https://wetter.com/afghanistan/larkird/AF1134762.html,35.4894,66.6641,Asia/Kabul,
ru-i,https://wetter.com/afghanistan/ru-i/AF1128212.html,35.7765,67.8676,Asia/Kabul,
osh,https://wetter.com/afghanistan/osh/AF1131382.html,35.5039,66.5836,Asia/Kabul,
marak,https://wetter.com/afghanistan/marak/AF1133877.html,35.6871,67.33,Asia/Kabul,
abrow,https://wetter.com/afghanistan/abrow/AF1149475.html,35.6998,66.8796,Asia/Kabul,
maymanah,https://wetter.com/afghanistan/maymanah/AF1133454.html,35.4994,67.641,Asia/Kabul,
zayraki,https://wetter.com/afghanistan/zayraki/AF1120706.html,35.8069,67.2892,Asia/Kabul,
chan-kelay-khord,https://wetter.com/afghanistan/chan-kelay-khord/AF1145459.html,36.0139,67.3858,Asia/Kabul,
wirdahqamal,https://wetter.com/afghanistan/wirdahqamal/AF1121597.html,35.9575,67.4008,Asia/Kabul,
sandal,https://wetter.com/afghanistan/sandal/AF1127721.html,36.1188,67.3283,Asia/Kabul,
maisat,https://wetter.com/afghanistan/maisat/AF1134242.html,36.1326,67.2816,Asia/Kabul,
chandal-ba-i,https://wetter.com/afghanistan/chandal-ba-i/AF1454590.html,34.5847,68.9552,Asia/Kabul,
qal-ah-ye-sarwar,https://wetter.com/afghanistan/qal-ah-ye-sarwar/AF1454591.html,34.5788,68.9614,Asia/Kabul,
kabul,https://wetter.com/afghanistan/kabul/AF0KB0001.html,34.5281,69.1723,Asia/Kabul,
bagrami,https://wetter.com/afghanistan/bagrami/AF1147511.html,34.4938,69.2743,Asia/Kabul,
furmuli-ye-pa-in,https://wetter.com/afghanistan/furmuli-ye-pa-in/AF1142145.html,34.4215,69.1142,Asia/Kabul,
istalif,https://wetter.com/afghanistan/istalif/AF1142330.html,34.8327,69.0776,Asia/Kabul,
qal-ah-ye-shanan,https://wetter.com/afghanistan/qal-ah-ye-shanan/AF1349991.html,34.5395,69.3218,Asia/Kabul,
wakah,https://wetter.com/afghanistan/wakah/AF1121807.html,34.6375,69.7555,Asia/Kabul,
sherullah,https://wetter.com/afghanistan/sherullah/AF1126325.html,34.299,69.3989,Asia/Kabul,
qal-achah-ye-bini-hisar,https://wetter.com/afghanistan/qal-achah-ye-bini-hisar/AF1146416.html,34.4884,69.2184,Asia/Kabul,
tilaqi,https://wetter.com/afghanistan/tilaqi/AF1470021.html,34.8195,69.0777,Asia/Kabul,
qal-ah-ye-dowlat,https://wetter.com/afghanistan/qal-ah-ye-dowlat/AF1454033.html,34.5817,69.1806,Asia/Kabul,
pul-e-sangi,https://wetter.com/afghanistan/pul-e-sangi/AF1349969.html,34.5997,69.2599,Asia/Kabul,
yakah-darakht,https://wetter.com/afghanistan/yakah-darakht/AF1121407.html,34.6321,69.3494,Asia/Kabul,
qarah-bagh-bazar,https://wetter.com/afghanistan/qarah-bagh-bazar/AF1349709.html,34.8529,69.1706,Asia/Kabul,
qarah-bagh,https://wetter.com/afghanistan/qarah-bagh/AF1129679.html,34.843,69.1519,Asia/Kabul,
qal-ah-ye-na-im,https://wetter.com/afghanistan/qal-ah-ye-na-im/AF1469237.html,34.3995,69.1671,Asia/Kabul,
wand,https://wetter.com/afghanistan/wand/AF1121870.html,34.769,68.8322,Asia/Kabul,
panich,https://wetter.com/afghanistan/panich/AF1131166.html,35.9278,66.2032,Asia/Kabul,
deh-e-now,https://wetter.com/afghanistan/deh-e-now/AF1143548.html,34.7477,69.0478,Asia/Kabul,
safar-khel,https://wetter.com/afghanistan/safar-khel/AF1349935.html,34.6966,69.0709,Asia/Kabul,
shartah,https://wetter.com/afghanistan/shartah/AF1126816.html,35.9588,67.4143,Asia/Kabul,
pay-tawah,https://wetter.com/afghanistan/pay-tawah/AF1131285.html,36.0575,67.2629,Asia/Kabul,
dultah-khanah,https://wetter.com/afghanistan/dultah-khanah/AF1142875.html,36.3769,67.5927,Asia/Kabul,
kochah-ariq,https://wetter.com/afghanistan/kochah-ariq/AF1135859.html,36.1315,67.2191,Asia/Kabul,
qumishi,https://wetter.com/afghanistan/qumishi/AF1128977.html,36.1479,67.2933,Asia/Kabul,
burmah,https://wetter.com/afghanistan/burmah/AF1146107.html,35.955,68.2907,Asia/Kabul,
balinah,https://wetter.com/afghanistan/balinah/AF1147294.html,36.0221,67.2884,Asia/Kabul,
dehi,https://wetter.com/afghanistan/dehi/AF1143477.html,35.9581,67.28,Asia/Kabul,
bazarak,https://wetter.com/afghanistan/bazarak/AF1146699.html,35.7545,67.0892,Asia/Kabul,
rom,https://wetter.com/afghanistan/rom/AF1128278.html,35.7007,67.1035,Asia/Kabul,
sar-e-shulan,https://wetter.com/afghanistan/sar-e-shulan/AF1127065.html,35.7112,67.088,Asia/Kabul,
chimqutan,https://wetter.com/afghanistan/chimqutan/AF1145962.html,35.9939,67.3124,Asia/Kabul,
mir-bachah-kot,https://wetter.com/afghanistan/mir-bachah-kot/AF1133270.html,34.75,69.119,Asia/Kabul,
sarobi,https://wetter.com/afghanistan/sarobi/AF1126884.html,34.5896,69.7601,Asia/Kabul,
alghu-i,https://wetter.com/afghanistan/alghu-i/AF1349941.html,34.6705,69.0601,Asia/Kabul,
paghman,https://wetter.com/afghanistan/paghman/AF1131316.html,34.5879,68.9509,Asia/Kabul,
taizo-kelay,https://wetter.com/afghanistan/taizo-kelay/AF1122583.html,34.4712,69.023,Asia/Kabul,
ghazah,https://wetter.com/afghanistan/ghazah/AF1141289.html,34.6429,69.0043,Asia/Kabul,
muta-khan,https://wetter.com/afghanistan/muta-khan/AF1133689.html,33.24,68.8663,Asia/Kabul,
larak,https://wetter.com/afghanistan/larak/AF1408286.html,36.0836,66.3382,Asia/Kabul,
larak,https://wetter.com/afghanistan/larak/AF1134783.html,36.0763,66.3354,Asia/Kabul,
rustaq,https://wetter.com/afghanistan/rustaq/AF1128265.html,37.126,69.8305,Asia/Kabul,
aduzai,https://wetter.com/afghanistan/aduzai/AF1149373.html,32.5518,65.3924,Asia/Kabul,
lapaz-beg,https://wetter.com/afghanistan/lapaz-beg/AF1134792.html,37.4522,69.71,Asia/Kabul,
khasar,https://wetter.com/afghanistan/khasar/AF1475397.html,37.5028,69.8244,Asia/Kabul,
dibash,https://wetter.com/afghanistan/dibash/AF1143100.html,36.6773,69.5751,Asia/Kabul,
quduq,https://wetter.com/afghanistan/quduq/AF1129002.html,37.4795,69.8142,Asia/Kabul,
kalafgan,https://wetter.com/afghanistan/kalafgan/AF1138657.html,36.7723,69.9449,Asia/Kabul,
sayl-e-posidah,https://wetter.com/afghanistan/sayl-e-posidah/AF1126426.html,36.1317,70.2733,Asia/Kabul,
darqad,https://wetter.com/afghanistan/darqad/AF1144040.html,37.3841,69.4529,Asia/Kabul,
khanaqah,https://wetter.com/afghanistan/khanaqah/AF1137121.html,36.6259,69.537,Asia/Kabul,
shir-khan-1,https://wetter.com/afghanistan/shir-khan-1/AF1467359.html,37.2028,69.7442,Asia/Kabul,
aq-jar,https://wetter.com/afghanistan/aq-jar/AF1148539.html,37.356,69.7282,Asia/Kabul,
bala-mokhow-ye,https://wetter.com/afghanistan/bala-mokhow-ye/AF1469088.html,36.1539,69.9508,Asia/Kabul,
bayshkapah,https://wetter.com/afghanistan/bayshkapah/AF1467615.html,37.369,69.7426,Asia/Kabul,
ispal,https://wetter.com/afghanistan/ispal/AF1469322.html,36.1305,70.0254,Asia/Kabul,
quqia,https://wetter.com/afghanistan/quqia/AF1128762.html,36.9275,69.4752,Asia/Kabul,
farkhar,https://wetter.com/afghanistan/farkhar/AF1142239.html,36.5729,69.8578,Asia/Kabul,
taqchah-khanah,https://wetter.com/afghanistan/taqchah-khanah/AF1467349.html,36.6192,69.6281,Asia/Kabul,
namaz-bay,https://wetter.com/afghanistan/namaz-bay/AF1125034.html,36.7299,69.382,Asia/Kabul,
yangi-qal-ah,https://wetter.com/afghanistan/yangi-qal-ah/AF1121271.html,37.4657,69.6113,Asia/Kabul,
karez,https://wetter.com/afghanistan/karez/AF1474793.html,32.4932,65.3483,Asia/Kabul,
siyah-chow,https://wetter.com/afghanistan/siyah-chow/AF1444206.html,32.5557,65.338,Asia/Kabul,
khurdi,https://wetter.com/afghanistan/khurdi/AF1136562.html,32.9395,66.6667,Asia/Kabul,
kelay,https://wetter.com/afghanistan/kelay/AF1138550.html,32.5796,65.326,Asia/Kabul,
rahm-quli,https://wetter.com/afghanistan/rahm-quli/AF1128601.html,33.2042,66.6523,Asia/Kabul,
mianah,https://wetter.com/afghanistan/mianah/AF1133425.html,32.8078,66.6869,Asia/Kabul,
fasil,https://wetter.com/afghanistan/fasil/AF1142222.html,32.5339,66.0785,Asia/Kabul,
abdul-razaq,https://wetter.com/afghanistan/abdul-razaq/AF1149574.html,32.6438,66.2182,Asia/Kabul,
ishaqzai,https://wetter.com/afghanistan/ishaqzai/AF1449948.html,32.6426,65.5944,Asia/Kabul,
charmistan,https://wetter.com/afghanistan/charmistan/AF1145322.html,32.6711,66.1623,Asia/Kabul,
garni,https://wetter.com/afghanistan/garni/AF1449899.html,32.607,65.8173,Asia/Kabul,
ghaznigak,https://wetter.com/afghanistan/ghaznigak/AF1449888.html,32.6231,65.897,Asia/Kabul,
khartut,https://wetter.com/afghanistan/khartut/AF1449958.html,32.5332,65.6778,Asia/Kabul,
igzah,https://wetter.com/afghanistan/igzah/AF1467674.html,37.2762,69.6844,Asia/Kabul,
deraw,https://wetter.com/afghanistan/deraw/AF1449953.html,32.6584,65.538,Asia/Kabul,
bari-gaw,https://wetter.com/afghanistan/bari-gaw/AF1428080.html,32.5643,66.1863,Asia/Kabul,
sanguli,https://wetter.com/afghanistan/sanguli/AF1124955.html,37.0606,69.7592,Asia/Kabul,
khwajah-ghar,https://wetter.com/afghanistan/khwajah-ghar/AF1136235.html,37.0659,69.4213,Asia/Kabul,
wayski,https://wetter.com/afghanistan/wayski/AF1121848.html,37.5287,69.9653,Asia/Kabul,
dashtak-e-sufla,https://wetter.com/afghanistan/dashtak-e-sufla/AF1466647.html,37.0287,69.7689,Asia/Kabul,
taluk,https://wetter.com/afghanistan/taluk/AF1466637.html,37.0589,69.6798,Asia/Kabul,
malik,https://wetter.com/afghanistan/malik/AF1134167.html,35.8768,66.1269,Asia/Kabul,
paygholah,https://wetter.com/afghanistan/paygholah/AF1130707.html,35.4177,66.3327,Asia/Kabul,
shiram,https://wetter.com/afghanistan/shiram/AF1408272.html,36.1998,66.138,Asia/Kabul,
shiram,https://wetter.com/afghanistan/shiram/AF1408262.html,36.2703,66.1177,Asia/Kabul,
sayad,https://wetter.com/afghanistan/sayad/AF1126266.html,36.1353,65.8297,Asia/Kabul,
sozmah-qal-ah,https://wetter.com/afghanistan/sozmah-qal-ah/AF1123963.html,36.0992,66.2082,Asia/Kabul,
palah,https://wetter.com/afghanistan/palah/AF1131253.html,35.8573,66.4767,Asia/Kabul,
sar-e-pul,https://wetter.com/afghanistan/sar-e-pul/AF1127110.html,36.2154,65.9325,Asia/Kabul,
shiram,https://wetter.com/afghanistan/shiram/AF1408264.html,36.2508,66.1332,Asia/Kabul,
kaltar,https://wetter.com/afghanistan/kaltar/AF1408261.html,36.2559,66.0307,Asia/Kabul,
chaman-e-ali-jan,https://wetter.com/afghanistan/chaman-e-ali-jan/AF1145520.html,36.312,65.9329,Asia/Kabul,
qamishlaq,https://wetter.com/afghanistan/qamishlaq/AF1129736.html,36.3214,65.8902,Asia/Kabul,
sayyid-azam-pad,https://wetter.com/afghanistan/sayyid-azam-pad/AF1126692.html,36.1574,66.044,Asia/Kabul,
sharaf-bay,https://wetter.com/afghanistan/sharaf-bay/AF1125349.html,36.4009,66.2873,Asia/Kabul,
shigai,https://wetter.com/afghanistan/shigai/AF1422047.html,36.3823,65.8685,Asia/Kabul,
chahar-say,https://wetter.com/afghanistan/chahar-say/AF1475389.html,36.2568,66.2731,Asia/Kabul,
imam-sahib,https://wetter.com/afghanistan/imam-sahib/AF1142547.html,36.4265,65.8352,Asia/Kabul,
sarde,https://wetter.com/afghanistan/sarde/AF1127296.html,35.8361,65.8957,Asia/Kabul,
bay-sar,https://wetter.com/afghanistan/bay-sar/AF1147454.html,36.0633,66.2283,Asia/Kabul,
qaflatun,https://wetter.com/afghanistan/qaflatun/AF1130200.html,36.0612,65.8348,Asia/Kabul,
tagaw-bay,https://wetter.com/afghanistan/tagaw-bay/AF1123343.html,35.6994,66.0616,Asia/Kabul,
art-khwajah,https://wetter.com/afghanistan/art-khwajah/AF1148106.html,37.0857,69.4796,Asia/Kabul,
howar-say,https://wetter.com/afghanistan/howar-say/AF1140171.html,36.9221,69.3884,Asia/Kabul,
hazar-jomich,https://wetter.com/afghanistan/hazar-jomich/AF1140091.html,36.9043,69.4977,Asia/Kabul,
bandil,https://wetter.com/afghanistan/bandil/AF1466773.html,37.0821,69.8881,Asia/Kabul,
dasht-e-qal-ah,https://wetter.com/afghanistan/dasht-e-qal-ah/AF1143814.html,37.1539,69.4435,Asia/Kabul,
akli-mamay,https://wetter.com/afghanistan/akli-mamay/AF1149130.html,37.0403,69.5291,Asia/Kabul,
qotum-bulaq,https://wetter.com/afghanistan/qotum-bulaq/AF1128912.html,36.9114,69.5483,Asia/Kabul,
zow,https://wetter.com/afghanistan/zow/AF1120791.html,35.4277,66.6942,Asia/Kabul,
murch-ali,https://wetter.com/afghanistan/murch-ali/AF6252088.html,36.6137,69.3561,Asia/Kabul,
jidah,https://wetter.com/afghanistan/jidah/AF6252077.html,36.9367,69.5796,Asia/Kabul,
nas-furosh,https://wetter.com/afghanistan/nas-furosh/AF6252081.html,36.7549,69.4924,Asia/Kabul,
taloqan,https://wetter.com/afghanistan/taloqan/AF1123004.html,36.7361,69.5345,Asia/Kabul,
qal-ah-ye-shahr,https://wetter.com/afghanistan/qal-ah-ye-shahr/AF1130065.html,35.5473,65.5676,Asia/Kabul,
afaqi,https://wetter.com/afghanistan/afaqi/AF1149371.html,36.6617,69.351,Asia/Kabul,
chaylah,https://wetter.com/afghanistan/chaylah/AF6252080.html,36.7917,69.4127,Asia/Kabul,
warwa,https://wetter.com/afghanistan/warwa/AF1121692.html,35.8553,65.8966,Asia/Kabul,
baysh-tan-tayg,https://wetter.com/afghanistan/baysh-tan-tayg/AF6252086.html,36.5019,69.3311,Asia/Kabul,
pasnay,https://wetter.com/afghanistan/pasnay/AF1130981.html,35.7666,65.7649,Asia/Kabul,
mangal,https://wetter.com/afghanistan/mangal/AF1434154.html,32.8573,69.2742,Asia/Kabul,
farman,https://wetter.com/afghanistan/farman/AF1142238.html,34.6692,69.82,Asia/Kabul,
kakar,https://wetter.com/afghanistan/kakar/AF1138703.html,32.0472,68.9597,Asia/Kabul,
dakar-kala,https://wetter.com/afghanistan/dakar-kala/AF1474406.html,34.8612,70.4602,Asia/Kabul,
chitila,https://wetter.com/afghanistan/chitila/AF1145943.html,34.8408,70.4832,Asia/Kabul,
farman-khel,https://wetter.com/afghanistan/farman-khel/AF1474655.html,34.5049,70.0486,Asia/Kabul,
mango,https://wetter.com/afghanistan/mango/AF1133957.html,34.8859,70.3801,Asia/Kabul,
lukhay,https://wetter.com/afghanistan/lukhay/AF1473015.html,34.6635,69.9212,Asia/Kabul,
wuluswali-alingar,https://wetter.com/afghanistan/wuluswali-alingar/AF1148911.html,34.8353,70.3593,Asia/Kabul,
qarghah-i,https://wetter.com/afghanistan/qarghah-i/AF1129555.html,34.554,70.2429,Asia/Kabul,
nurah-lam,https://wetter.com/afghanistan/nurah-lam/AF1131630.html,34.8633,70.4536,Asia/Kabul,
mashinah,https://wetter.com/afghanistan/mashinah/AF1474664.html,34.5132,70.2561,Asia/Kabul,
ghunde,https://wetter.com/afghanistan/ghunde/AF1474632.html,34.5283,70.2748,Asia/Kabul,
sowatay,https://wetter.com/afghanistan/sowatay/AF1474630.html,34.5258,70.2713,Asia/Kabul,
qal-ahtak,https://wetter.com/afghanistan/qal-ahtak/AF1474616.html,34.5466,70.2735,Asia/Kabul,
parch-bandeh,https://wetter.com/afghanistan/parch-bandeh/AF1131108.html,34.6373,70.3829,Asia/Kabul,
barigzai,https://wetter.com/afghanistan/barigzai/AF1474475.html,34.7188,70.1341,Asia/Kabul,
mya-kala,https://wetter.com/afghanistan/mya-kala/AF1474534.html,34.6482,70.2267,Asia/Kabul,
mehtar-lam,https://wetter.com/afghanistan/mehtar-lam/AF1133574.html,34.6714,70.2094,Asia/Kabul,
andor,https://wetter.com/afghanistan/andor/AF1474621.html,34.5351,70.2216,Asia/Kabul,
shah-rawan,https://wetter.com/afghanistan/shah-rawan/AF1125889.html,37.0897,69.217,Asia/Kabul,
tash-guzar,https://wetter.com/afghanistan/tash-guzar/AF1122708.html,37.1177,69.1367,Asia/Kabul,
sujani,https://wetter.com/afghanistan/sujani/AF1123722.html,36.7258,68.788,Asia/Kabul,
chatal,https://wetter.com/afghanistan/chatal/AF1145256.html,37.2333,68.9,Asia/Kabul,
kulukh-tapah,https://wetter.com/afghanistan/kulukh-tapah/AF1135721.html,36.9892,68.2223,Asia/Kabul,
kanam,https://wetter.com/afghanistan/kanam/AF1465271.html,37.1527,68.8576,Asia/Kabul,
chilah-mazar,https://wetter.com/afghanistan/chilah-mazar/AF1145141.html,36.7109,68.8982,Asia/Kabul,
yanghariq,https://wetter.com/afghanistan/yanghariq/AF1121277.html,36.9038,68.6245,Asia/Kabul,
naqil,https://wetter.com/afghanistan/naqil/AF1132354.html,36.6296,68.9038,Asia/Kabul,
kanum,https://wetter.com/afghanistan/kanum/AF1468050.html,36.7921,68.9553,Asia/Kabul,
tawusabad,https://wetter.com/afghanistan/tawusabad/AF1467785.html,36.6541,69.0136,Asia/Kabul,
isa-khel,https://wetter.com/afghanistan/isa-khel/AF1467995.html,36.6708,68.8437,Asia/Kabul,
kundus,https://wetter.com/afghanistan/kundus/AF1135689.html,36.729,68.857,Asia/Kabul,
