City,URL,Latitude,Longitude,Timezone,Error,Weather Report?
soda-springs,https://wetter.com/vereinigte-staaten/soda-springs/US5607916.html,42.6544,-111.6047,America/Boise,,True
idaho-city,https://wetter.com/vereinigte-staaten/idaho-city/US5596462.html,43.8285,-115.8346,America/Boise,,True
arco,https://wetter.com/vereinigte-staaten/arco/US5584200.html,43.6366,-113.3003,America/Boise,,True
rexburg,https://wetter.com/vereinigte-staaten/rexburg/US5605242.html,43.826,-111.7897,America/Boise,,True
hailey,https://wetter.com/vereinigte-staaten/hailey/US5594956.html,43.5196,-114.3153,America/Boise,,True
shoshone,https://wetter.com/vereinigte-staaten/shoshone/US5607205.html,42.936,-114.4059,America/Boise,,True
rigby,https://wetter.com/vereinigte-staaten/rigby/US5605321.html,43.6724,-111.915,America/Boise,,True
saint-anthony,https://wetter.com/vereinigte-staaten/saint-anthony/US5606187.html,43.9663,-111.6822,America/Boise,,True
salmon,https://wetter.com/vereinigte-staaten/salmon/US5606275.html,45.1758,-113.8959,America/Boise,,True
mountain-home,https://wetter.com/vereinigte-staaten/mountain-home/US5601615.html,43.133,-115.6912,America/Boise,,True
paris,https://wetter.com/vereinigte-staaten/paris/US5603240.html,42.2272,-111.401,America/Boise,,True
twin-falls,https://wetter.com/vereinigte-staaten/twin-falls/US5610810.html,42.563,-114.4609,America/Boise,,True
idaho-falls,https://wetter.com/vereinigte-staaten/idaho-falls/US5596475.html,43.4666,-112.0341,America/Boise,,True
dubois,https://wetter.com/vereinigte-staaten/dubois/US5591649.html,44.1763,-112.2308,America/Boise,,True
pocatello,https://wetter.com/vereinigte-staaten/pocatello/US5604045.html,42.8713,-112.4455,America/Boise,,True
american-falls,https://wetter.com/vereinigte-staaten/american-falls/US5583981.html,42.786,-112.8544,America/Boise,,True
preston,https://wetter.com/vereinigte-staaten/preston/US5604473.html,42.0963,-111.8766,America/Boise,,True
weiser,https://wetter.com/vereinigte-staaten/weiser/US5611730.html,44.251,-116.9693,America/Boise,,True
council,https://wetter.com/vereinigte-staaten/council/US5589857.html,44.7299,-116.4382,America/Boise,,True
driggs,https://wetter.com/vereinigte-staaten/driggs/US5591399.html,43.7233,-111.1113,America/Boise,,True
caldwell,https://wetter.com/vereinigte-staaten/caldwell/US5587698.html,43.6629,-116.6874,America/Boise,,True
challis,https://wetter.com/vereinigte-staaten/challis/US5588524.html,44.5046,-114.2317,America/Boise,,True
boise,https://wetter.com/vereinigte-staaten/boise/US5586437.html,43.6135,-116.2035,America/Boise,,True
rupert,https://wetter.com/vereinigte-staaten/rupert/US5606000.html,42.6191,-113.6772,America/Boise,,True
malad-city,https://wetter.com/vereinigte-staaten/malad-city/US5600035.html,42.1916,-112.2508,America/Boise,,True
jerome,https://wetter.com/vereinigte-staaten/jerome/US5597034.html,42.7241,-114.5187,America/Boise,,True
cascade,https://wetter.com/vereinigte-staaten/cascade/US5588160.html,44.5163,-116.0418,America/Boise,,True
emmett,https://wetter.com/vereinigte-staaten/emmett/US5592562.html,43.8735,-116.4993,America/Boise,,True
payette,https://wetter.com/vereinigte-staaten/payette/US5603393.html,44.0782,-116.9338,America/Boise,,True
burley,https://wetter.com/vereinigte-staaten/burley/US5587385.html,42.5357,-113.7928,America/Boise,,True
blackfoot,https://wetter.com/vereinigte-staaten/blackfoot/US5586093.html,43.1905,-112.345,America/Boise,,True
gooding,https://wetter.com/vereinigte-staaten/gooding/US5594307.html,42.9388,-114.7131,America/Boise,,True
vale,https://wetter.com/vereinigte-staaten/vale/US5758413.html,43.9821,-117.2382,America/Boise,,True
guadalupe,https://wetter.com/mexiko/guadalupe/MX4005405.html,31.3895,-106.1057,America/Ciudad_Juarez,,True
praxedis-g-guerrero,https://wetter.com/mexiko/praxedis-g-guerrero/MX3991869.html,31.3706,-106.0062,America/Ciudad_Juarez,,True
ciudad-juarez,https://wetter.com/mexiko/ciudad-juarez/MX4013708.html,31.7202,-106.4608,America/Ciudad_Juarez,,True
ascension,https://wetter.com/mexiko/ascension/MX4003582.html,31.0926,-107.9969,America/Ciudad_Juarez,,True
janos,https://wetter.com/mexiko/janos/MX4004116.html,30.8891,-108.1943,America/Ciudad_Juarez,,True
dawson,https://wetter.com/kanada/dawson/CA5935790.html,64.0432,-139.4167,America/Dawson,,True
beaver-creek,https://wetter.com/kanada/beaver-creek/CA6354909.html,62.3827,-140.8793,America/Dawson,,True
fort-st-john,https://wetter.com/kanada/fort-st-john/CA5955960.html,56.2499,-120.8529,America/Dawson_Creek,,True
green-river,https://wetter.com/vereinigte-staaten/green-river/US5826559.html,41.5286,-109.4663,America/Denver,,True
lovell,https://wetter.com/vereinigte-staaten/lovell/US5831176.html,44.8375,-108.3896,America/Denver,,True
cody,https://wetter.com/vereinigte-staaten/cody/US5821593.html,44.5263,-109.0565,America/Denver,,True
glenrock,https://wetter.com/vereinigte-staaten/glenrock/US5826088.html,42.8614,-105.8722,America/Denver,,True
south-park,https://wetter.com/vereinigte-staaten/south-park/US5839264.html,43.4222,-110.7933,America/Denver,,True
wheatland,https://wetter.com/vereinigte-staaten/wheatland/US5842753.html,42.0541,-104.953,America/Denver,,True
saratoga,https://wetter.com/vereinigte-staaten/saratoga/US5837593.html,41.455,-106.8064,America/Denver,,True
powell,https://wetter.com/vereinigte-staaten/powell/US5835606.html,44.7538,-108.7574,America/Denver,,True
sundance,https://wetter.com/vereinigte-staaten/sundance/US5840284.html,44.4064,-104.3758,America/Denver,,True
pinedale,https://wetter.com/vereinigte-staaten/pinedale/US5835178.html,42.8666,-109.861,America/Denver,,True
wright,https://wetter.com/vereinigte-staaten/wright/US5843515.html,43.7512,-105.492,America/Denver,,True
torrington,https://wetter.com/vereinigte-staaten/torrington/US5841207.html,42.0625,-104.1844,America/Denver,,True
buffalo,https://wetter.com/vereinigte-staaten/buffalo/US5819881.html,44.3483,-106.6989,America/Denver,,True
jackson,https://wetter.com/vereinigte-staaten/jackson/US5828648.html,43.4799,-110.7624,America/Denver,,True
newcastle,https://wetter.com/vereinigte-staaten/newcastle/US5833349.html,43.8547,-104.2049,America/Denver,,True
riverton,https://wetter.com/vereinigte-staaten/riverton/US5836665.html,43.025,-108.3801,America/Denver,,True
gillette,https://wetter.com/vereinigte-staaten/gillette/US5826027.html,44.2911,-105.5022,America/Denver,,True
douglas,https://wetter.com/vereinigte-staaten/douglas/US5823516.html,42.7597,-105.3822,America/Denver,,True
north-rock-springs,https://wetter.com/vereinigte-staaten/north-rock-springs/US5833892.html,41.6436,-109.2657,America/Denver,,True
evanston,https://wetter.com/vereinigte-staaten/evanston/US5824805.html,41.2683,-110.9632,America/Denver,,True
ranchettes,https://wetter.com/vereinigte-staaten/ranchettes/US5835956.html,41.2186,-104.7903,America/Denver,,True
ethete,https://wetter.com/vereinigte-staaten/ethete/US5824773.html,43.025,-108.7726,America/Denver,,True
kemmerer,https://wetter.com/vereinigte-staaten/kemmerer/US5829425.html,41.7925,-110.5377,America/Denver,,True
lusk,https://wetter.com/vereinigte-staaten/lusk/US5831333.html,42.7625,-104.4522,America/Denver,,True
laramie,https://wetter.com/vereinigte-staaten/laramie/US5830062.html,41.3114,-105.5911,America/Denver,,True
lander,https://wetter.com/vereinigte-staaten/lander/US5830007.html,42.833,-108.7307,America/Denver,,True
south-greeley,https://wetter.com/vereinigte-staaten/south-greeley/US5839233.html,41.0969,-104.8064,America/Denver,,True
sheridan,https://wetter.com/vereinigte-staaten/sheridan/US5838198.html,44.7972,-106.9562,America/Denver,,True
moose-wilson-road,https://wetter.com/vereinigte-staaten/moose-wilson-road/US5832759.html,43.5252,-110.8447,America/Denver,,True
rawlins,https://wetter.com/vereinigte-staaten/rawlins/US5836068.html,41.7911,-107.2387,America/Denver,,True
rock-springs,https://wetter.com/vereinigte-staaten/rock-springs/US5836898.html,41.5875,-109.2029,America/Denver,,True
worland,https://wetter.com/vereinigte-staaten/worland/US5843495.html,44.0169,-107.9554,America/Denver,,True
thermopolis,https://wetter.com/vereinigte-staaten/thermopolis/US5840846.html,43.6461,-108.212,America/Denver,,True
tierra-amarilla,https://wetter.com/vereinigte-staaten/tierra-amarilla/US5494507.html,36.7003,-106.5498,America/Denver,,True
bar-nunn,https://wetter.com/vereinigte-staaten/bar-nunn/US5817809.html,42.9136,-106.3434,America/Denver,,True
miles-city,https://wetter.com/vereinigte-staaten/miles-city/US5666176.html,46.4083,-105.8406,America/Denver,,True
lewistown,https://wetter.com/vereinigte-staaten/lewistown/US5662162.html,47.0625,-109.4282,America/Denver,,True
shelby,https://wetter.com/vereinigte-staaten/shelby/US5677433.html,48.5053,-111.857,America/Denver,,True
plentywood,https://wetter.com/vereinigte-staaten/plentywood/US5671807.html,48.7748,-104.5625,America/Denver,,True
red-lodge,https://wetter.com/vereinigte-staaten/red-lodge/US5673390.html,45.1858,-109.2468,America/Denver,,True
malta,https://wetter.com/vereinigte-staaten/malta/US5664486.html,48.3597,-107.8743,America/Denver,,True
missoula,https://wetter.com/vereinigte-staaten/missoula/US5666639.html,46.8722,-113.994,America/Denver,,True
libby,https://wetter.com/vereinigte-staaten/libby/US5662190.html,48.3883,-115.556,America/Denver,,True
livingston,https://wetter.com/vereinigte-staaten/livingston/US5663049.html,45.6624,-110.561,America/Denver,,True
cut-bank,https://wetter.com/vereinigte-staaten/cut-bank/US5647469.html,48.633,-112.3262,America/Denver,,True
roundup,https://wetter.com/vereinigte-staaten/roundup/US5674878.html,46.4452,-108.5418,America/Denver,,True
dillon,https://wetter.com/vereinigte-staaten/dillon/US5648657.html,45.2163,-112.6375,America/Denver,,True
hamilton,https://wetter.com/vereinigte-staaten/hamilton/US5655959.html,46.2469,-114.1604,America/Denver,,True
great-falls,https://wetter.com/vereinigte-staaten/great-falls/US5655240.html,47.5002,-111.3008,America/Denver,,True
glasgow,https://wetter.com/vereinigte-staaten/glasgow/US5654320.html,48.197,-106.6367,America/Denver,,True
helena,https://wetter.com/vereinigte-staaten/helena/US5656882.html,46.5927,-112.0361,America/Denver,,True
boulder,https://wetter.com/vereinigte-staaten/boulder/US5641473.html,46.2366,-112.1208,America/Denver,,True
havre,https://wetter.com/vereinigte-staaten/havre/US5656497.html,48.55,-109.6841,America/Denver,,True
fort-benton,https://wetter.com/vereinigte-staaten/fort-benton/US5652763.html,47.8183,-110.6674,America/Denver,,True
columbus,https://wetter.com/vereinigte-staaten/columbus/US5645893.html,45.6366,-109.2521,America/Denver,,True
glendive,https://wetter.com/vereinigte-staaten/glendive/US5654391.html,47.1053,-104.7125,America/Denver,,True
forsyth,https://wetter.com/vereinigte-staaten/forsyth/US5652699.html,46.2664,-106.6778,America/Denver,,True
hardin,https://wetter.com/vereinigte-staaten/hardin/US5656170.html,45.7325,-107.612,America/Denver,,True
anaconda,https://wetter.com/vereinigte-staaten/anaconda/US5637146.html,46.1285,-112.9423,America/Denver,,True
polson,https://wetter.com/vereinigte-staaten/polson/US5671996.html,47.6936,-114.1632,America/Denver,,True
kalispell,https://wetter.com/vereinigte-staaten/kalispell/US5660340.html,48.1958,-114.3129,America/Denver,,True
deming,https://wetter.com/vereinigte-staaten/deming/US5464806.html,32.2687,-107.7586,America/Denver,,True
carlsbad,https://wetter.com/vereinigte-staaten/carlsbad/US5460459.html,32.4207,-104.2288,America/Denver,,True
clayton-new-mexico,https://wetter.com/vereinigte-staaten/clayton-new-mexico/US5462269.html,36.4517,-103.1841,America/Denver,,True
farmington,https://wetter.com/vereinigte-staaten/farmington/US5467328.html,36.7281,-108.2187,America/Denver,,True
bernalillo,https://wetter.com/vereinigte-staaten/bernalillo/US5457198.html,35.3,-106.5511,America/Denver,,True
clovis,https://wetter.com/vereinigte-staaten/clovis/US5462393.html,34.4048,-103.2052,America/Denver,,True
hobbs,https://wetter.com/vereinigte-staaten/hobbs/US5471578.html,32.7026,-103.136,America/Denver,,True
santa-rosa,https://wetter.com/vereinigte-staaten/santa-rosa/US5490338.html,34.9387,-104.6825,America/Denver,,True
anthony,https://wetter.com/vereinigte-staaten/anthony/US5455381.html,32.004,-106.6058,America/Denver,,True
aztec,https://wetter.com/vereinigte-staaten/aztec/US5456049.html,36.8222,-107.9929,America/Denver,,True
scobey,https://wetter.com/vereinigte-staaten/scobey/US5676740.html,48.7925,-105.4208,America/Denver,,True
artesia,https://wetter.com/vereinigte-staaten/artesia/US5455796.html,32.8423,-104.4033,America/Denver,,True
alamogordo,https://wetter.com/vereinigte-staaten/alamogordo/US5454627.html,32.8995,-105.9603,America/Denver,,True
sidney,https://wetter.com/vereinigte-staaten/sidney/US5699552.html,41.1428,-102.978,America/Denver,,True
kimball,https://wetter.com/vereinigte-staaten/kimball/US5696715.html,41.2358,-103.663,America/Denver,,True
chadron,https://wetter.com/vereinigte-staaten/chadron/US5694163.html,42.8294,-102.9999,America/Denver,,True
gering,https://wetter.com/vereinigte-staaten/gering/US5695604.html,41.8258,-103.6605,America/Denver,,True
townsend,https://wetter.com/vereinigte-staaten/townsend/US5682902.html,46.3191,-111.5208,America/Denver,,True
alliance,https://wetter.com/vereinigte-staaten/alliance/US5693164.html,42.1016,-102.8722,America/Denver,,True
thompson-falls,https://wetter.com/vereinigte-staaten/thompson-falls/US5682278.html,47.5949,-115.3383,America/Denver,,True
wolf-point,https://wetter.com/vereinigte-staaten/wolf-point/US5687028.html,48.0906,-105.6406,America/Denver,,True
sidney,https://wetter.com/vereinigte-staaten/sidney/US5677735.html,47.7167,-104.1563,America/Denver,,True
albuquerque,https://wetter.com/vereinigte-staaten/albuquerque/US5454711.html,35.0845,-106.6511,America/Denver,,True
carrizozo,https://wetter.com/vereinigte-staaten/carrizozo/US5460567.html,33.6417,-105.8772,America/Denver,,True
deer-lodge,https://wetter.com/vereinigte-staaten/deer-lodge/US5648267.html,46.3958,-112.73,America/Denver,,True
choteau,https://wetter.com/vereinigte-staaten/choteau/US5644844.html,47.8125,-112.1836,America/Denver,,True
lamar,https://wetter.com/vereinigte-staaten/lamar/US5427957.html,38.0872,-102.6208,America/Denver,,True
holyoke,https://wetter.com/vereinigte-staaten/holyoke/US5578099.html,40.5844,-102.3024,America/Denver,,True
littleton,https://wetter.com/vereinigte-staaten/littleton/US5429032.html,39.6133,-105.0167,America/Denver,,True
leadville,https://wetter.com/vereinigte-staaten/leadville/US5428184.html,39.2508,-106.2925,America/Denver,,True
eagle,https://wetter.com/vereinigte-staaten/eagle/US5420328.html,39.6553,-106.8287,America/Denver,,True
las-animas,https://wetter.com/vereinigte-staaten/las-animas/US5428055.html,38.0667,-103.2227,America/Denver,,True
glenwood-springs,https://wetter.com/vereinigte-staaten/glenwood-springs/US5423092.html,39.5505,-107.3248,America/Denver,,True
castle-rock,https://wetter.com/vereinigte-staaten/castle-rock/US5416329.html,39.3722,-104.8561,America/Denver,,True
durango,https://wetter.com/vereinigte-staaten/durango/US5420241.html,37.2753,-107.8801,America/Denver,,True
burlington,https://wetter.com/vereinigte-staaten/burlington/US5415502.html,39.3061,-102.2694,America/Denver,,True
la-junta,https://wetter.com/vereinigte-staaten/la-junta/US5427705.html,37.985,-103.5438,America/Denver,,True
broomfield,https://wetter.com/vereinigte-staaten/broomfield/US5415035.html,39.9205,-105.0867,America/Denver,,True
delta,https://wetter.com/vereinigte-staaten/delta/US5419334.html,38.7422,-108.069,America/Denver,,True
denver,https://wetter.com/vereinigte-staaten/denver/US5419384.html,39.7392,-104.9847,America/Denver,,True
aspen,https://wetter.com/vereinigte-staaten/aspen/US5412230.html,39.1911,-106.8175,America/Denver,,True
craig,https://wetter.com/vereinigte-staaten/craig/US5576064.html,40.5153,-107.5465,America/Denver,,True
breckenridge,https://wetter.com/vereinigte-staaten/breckenridge/US5414872.html,39.4817,-106.0384,America/Denver,,True
cortez,https://wetter.com/vereinigte-staaten/cortez/US5418104.html,37.3489,-108.5859,America/Denver,,True
grand-junction,https://wetter.com/vereinigte-staaten/grand-junction/US5423573.html,39.0639,-108.5507,America/Denver,,True
akron,https://wetter.com/vereinigte-staaten/akron/US5574199.html,40.1605,-103.2144,America/Denver,,True
boulder,https://wetter.com/vereinigte-staaten/boulder/US5574991.html,40.015,-105.2706,America/Denver,,True
colorado-springs,https://wetter.com/vereinigte-staaten/colorado-springs/US5417598.html,38.8339,-104.8214,America/Denver,,True
alamosa,https://wetter.com/vereinigte-staaten/alamosa/US5411479.html,37.4695,-105.87,America/Denver,,True
conrad,https://wetter.com/vereinigte-staaten/conrad/US5646101.html,48.1703,-111.9461,America/Denver,,True
gunnison,https://wetter.com/vereinigte-staaten/gunnison/US5424099.html,38.5458,-106.9253,America/Denver,,True
brighton,https://wetter.com/vereinigte-staaten/brighton/US5414941.html,39.9853,-104.8205,America/Denver,,True
chinook,https://wetter.com/vereinigte-staaten/chinook/US5644801.html,48.59,-109.2313,America/Denver,,True
butte,https://wetter.com/vereinigte-staaten/butte/US5642934.html,46.0038,-112.5347,America/Denver,,True
billings,https://wetter.com/vereinigte-staaten/billings/US5640350.html,45.7833,-108.5007,America/Denver,,True
big-timber,https://wetter.com/vereinigte-staaten/big-timber/US5640214.html,45.8349,-109.9555,America/Denver,,True
baker,https://wetter.com/vereinigte-staaten/baker/US5638252.html,46.367,-104.2847,America/Denver,,True
bozeman,https://wetter.com/vereinigte-staaten/bozeman/US5641727.html,45.6797,-111.0386,America/Denver,,True
cheyenne,https://wetter.com/vereinigte-staaten/cheyenne/US5821086.html,41.14,-104.8203,America/Denver,,True
goodland,https://wetter.com/vereinigte-staaten/goodland/US5445479.html,39.3508,-101.7102,America/Denver,,True
wray,https://wetter.com/vereinigte-staaten/wray/US5553755.html,40.0758,-102.2233,America/Denver,,True
walsenburg,https://wetter.com/vereinigte-staaten/walsenburg/US5443206.html,37.6242,-104.7803,America/Denver,,True
golden,https://wetter.com/vereinigte-staaten/golden/US5423294.html,39.7555,-105.2211,America/Denver,,True
telluride,https://wetter.com/vereinigte-staaten/telluride/US5441199.html,37.9375,-107.8123,America/Denver,,True
steamboat-springs,https://wetter.com/vereinigte-staaten/steamboat-springs/US5582371.html,40.485,-106.8317,America/Denver,,True
pueblo,https://wetter.com/vereinigte-staaten/pueblo/US5435464.html,38.2545,-104.6091,America/Denver,,True
trinidad,https://wetter.com/vereinigte-staaten/trinidad/US5442007.html,37.1695,-104.5005,America/Denver,,True
meeker,https://wetter.com/vereinigte-staaten/meeker/US5579761.html,40.0375,-107.9131,America/Denver,,True
greeley,https://wetter.com/vereinigte-staaten/greeley/US5577592.html,40.4233,-104.7091,America/Denver,,True
fort-morgan,https://wetter.com/vereinigte-staaten/fort-morgan/US5577158.html,40.2503,-103.8,America/Denver,,True
montrose,https://wetter.com/vereinigte-staaten/montrose/US5431710.html,38.4783,-107.8762,America/Denver,,True
sterling,https://wetter.com/vereinigte-staaten/sterling/US5582392.html,40.6255,-103.2077,America/Denver,,True
pagosa-springs,https://wetter.com/vereinigte-staaten/pagosa-springs/US5433784.html,37.2695,-107.0098,America/Denver,,True
fort-collins,https://wetter.com/vereinigte-staaten/fort-collins/US5577147.html,40.5853,-105.0844,America/Denver,,True
salida,https://wetter.com/vereinigte-staaten/salida/US5437555.html,38.5347,-105.9989,America/Denver,,True
estancia,https://wetter.com/vereinigte-staaten/estancia/US5467102.html,34.7584,-106.0559,America/Denver,,True
ogallala,https://wetter.com/vereinigte-staaten/ogallala/US5698040.html,41.1281,-101.7196,America/Denver,,True
gallup,https://wetter.com/vereinigte-staaten/gallup/US5468773.html,35.5281,-108.7426,America/Denver,,True
tooele,https://wetter.com/vereinigte-staaten/tooele/US5783695.html,40.5308,-112.2983,America/Denver,,True
monticello,https://wetter.com/vereinigte-staaten/monticello/US5543377.html,37.8714,-109.3429,America/Denver,,True
ogden,https://wetter.com/vereinigte-staaten/ogden/US5779206.html,41.223,-111.9738,America/Denver,,True
nephi,https://wetter.com/vereinigte-staaten/nephi/US5543853.html,39.7102,-111.8363,America/Denver,,True
west-jordan,https://wetter.com/vereinigte-staaten/west-jordan/US5784549.html,40.6097,-111.9391,America/Denver,,True
kanab,https://wetter.com/vereinigte-staaten/kanab/US5541458.html,37.0475,-112.5263,America/Denver,,True
saint-george,https://wetter.com/vereinigte-staaten/saint-george/US5546220.html,37.1042,-113.5841,America/Denver,,True
orem,https://wetter.com/vereinigte-staaten/orem/US5779334.html,40.2969,-111.6947,America/Denver,,True
castle-dale,https://wetter.com/vereinigte-staaten/castle-dale/US5536511.html,39.2122,-111.0196,America/Denver,,True
moab,https://wetter.com/vereinigte-staaten/moab/US5543307.html,38.5733,-109.5498,America/Denver,,True
farmington,https://wetter.com/vereinigte-staaten/farmington/US5774662.html,40.9805,-111.8874,America/Denver,,True
fillmore,https://wetter.com/vereinigte-staaten/fillmore/US5539097.html,38.9689,-112.3236,America/Denver,,True
west-valley-city,https://wetter.com/vereinigte-staaten/west-valley-city/US5784607.html,40.6916,-112.0011,America/Denver,,True
bountiful,https://wetter.com/vereinigte-staaten/bountiful/US5771826.html,40.8894,-111.8808,America/Denver,,True
afton,https://wetter.com/vereinigte-staaten/afton/US5816861.html,42.7249,-110.9319,America/Denver,,True
salt-lake-city,https://wetter.com/vereinigte-staaten/salt-lake-city/US5780993.html,40.7608,-111.8911,America/Denver,,True
evansville,https://wetter.com/vereinigte-staaten/evansville/US5824810.html,42.86,-106.2684,America/Denver,,True
riverton,https://wetter.com/vereinigte-staaten/riverton/US5780557.html,40.5219,-111.9391,America/Denver,,True
layton,https://wetter.com/vereinigte-staaten/layton/US5777107.html,41.0602,-111.9711,America/Denver,,True
sandy,https://wetter.com/vereinigte-staaten/sandy/US5781061.html,40.5916,-111.8841,America/Denver,,True
vernal,https://wetter.com/vereinigte-staaten/vernal/US5784154.html,40.4555,-109.5288,America/Denver,,True
loa,https://wetter.com/vereinigte-staaten/loa/US5542323.html,38.4028,-111.643,America/Denver,,True
espanola,https://wetter.com/vereinigte-staaten/espanola/US5467024.html,35.9911,-106.0806,America/Denver,,True
lehi,https://wetter.com/vereinigte-staaten/lehi/US5777224.html,40.3916,-111.8508,America/Denver,,True
manti,https://wetter.com/vereinigte-staaten/manti/US5542758.html,39.2683,-111.6369,America/Denver,,True
provo,https://wetter.com/vereinigte-staaten/provo/US5780026.html,40.2338,-111.6585,America/Denver,,True
brigham-city,https://wetter.com/vereinigte-staaten/brigham-city/US5771960.html,41.5102,-112.0155,America/Denver,,True
logan,https://wetter.com/vereinigte-staaten/logan/US5777544.html,41.7355,-111.8344,America/Denver,,True
coalville,https://wetter.com/vereinigte-staaten/coalville/US5773066.html,40.9177,-111.3994,America/Denver,,True
richfield,https://wetter.com/vereinigte-staaten/richfield/US5545710.html,38.7725,-112.0841,America/Denver,,True
parowan,https://wetter.com/vereinigte-staaten/parowan/US5544619.html,37.8422,-112.828,America/Denver,,True
morgan,https://wetter.com/vereinigte-staaten/morgan/US5778518.html,41.0361,-111.6769,America/Denver,,True
randolph,https://wetter.com/vereinigte-staaten/randolph/US5780154.html,41.6658,-111.1821,America/Denver,,True
murray,https://wetter.com/vereinigte-staaten/murray/US5778755.html,40.6669,-111.888,America/Denver,,True
price,https://wetter.com/vereinigte-staaten/price/US5545269.html,39.5994,-110.8107,America/Denver,,True
millcreek,https://wetter.com/vereinigte-staaten/millcreek/US5778352.html,40.6869,-111.8755,America/Denver,,True
south-jordan,https://wetter.com/vereinigte-staaten/south-jordan/US5781770.html,40.5622,-111.9297,America/Denver,,True
manila,https://wetter.com/vereinigte-staaten/manila/US5777855.html,40.988,-109.7227,America/Denver,,True
panguitch,https://wetter.com/vereinigte-staaten/panguitch/US5544525.html,37.8228,-112.4358,America/Denver,,True
junction,https://wetter.com/vereinigte-staaten/junction/US5541403.html,38.2375,-112.2199,America/Denver,,True
greybull,https://wetter.com/vereinigte-staaten/greybull/US5826603.html,44.4891,-108.0562,America/Denver,,True
duchesne,https://wetter.com/vereinigte-staaten/duchesne/US5774135.html,40.1633,-110.4029,America/Denver,,True
beaver,https://wetter.com/vereinigte-staaten/beaver/US5534882.html,38.2769,-112.6411,America/Denver,,True
casper,https://wetter.com/vereinigte-staaten/casper/US5820705.html,42.8666,-106.3131,America/Denver,,True
los-alamos,https://wetter.com/vereinigte-staaten/los-alamos/US5476825.html,35.8881,-106.307,America/Denver,,True
reserve,https://wetter.com/vereinigte-staaten/reserve/US5487396.html,33.7131,-108.7578,America/Denver,,True
silver-city,https://wetter.com/vereinigte-staaten/silver-city/US5491487.html,32.7701,-108.2803,America/Denver,,True
los-lunas,https://wetter.com/vereinigte-staaten/los-lunas/US5476913.html,34.8062,-106.7334,America/Denver,,True
santa-fe,https://wetter.com/vereinigte-staaten/santa-fe/US5490263.html,35.687,-105.9378,America/Denver,,True
portales,https://wetter.com/vereinigte-staaten/portales/US5484874.html,34.1862,-103.3344,America/Denver,,True
lovington,https://wetter.com/vereinigte-staaten/lovington/US5477090.html,32.944,-103.3486,America/Denver,,True
north-valley,https://wetter.com/vereinigte-staaten/north-valley/US5481793.html,35.1734,-106.6234,America/Denver,,True
las-cruces,https://wetter.com/vereinigte-staaten/las-cruces/US5475352.html,32.3123,-106.7783,America/Denver,,True
lordsburg,https://wetter.com/vereinigte-staaten/lordsburg/US5476799.html,32.3504,-108.7087,America/Denver,,True
mora,https://wetter.com/vereinigte-staaten/mora/US5285666.html,35.9742,-105.33,America/Denver,,True
rio-rancho,https://wetter.com/vereinigte-staaten/rio-rancho/US5487811.html,35.2334,-106.6645,America/Denver,,True
grants,https://wetter.com/vereinigte-staaten/grants/US5469841.html,35.1476,-107.8526,America/Denver,,True
las-vegas,https://wetter.com/vereinigte-staaten/las-vegas/US5475433.html,35.5939,-105.2239,America/Denver,,True
raton,https://wetter.com/vereinigte-staaten/raton/US5486795.html,36.9034,-104.4392,America/Denver,,True
mosquero,https://wetter.com/vereinigte-staaten/mosquero/US5480275.html,35.777,-103.9566,America/Denver,,True
tucumcari,https://wetter.com/vereinigte-staaten/tucumcari/US5495360.html,35.1719,-103.7269,America/Denver,,True
roswell,https://wetter.com/vereinigte-staaten/roswell/US5488441.html,33.3944,-104.5249,America/Denver,,True
fort-sumner,https://wetter.com/vereinigte-staaten/fort-sumner/US5468133.html,34.4717,-104.2455,America/Denver,,True
draper,https://wetter.com/vereinigte-staaten/draper/US5774001.html,40.5247,-111.8638,America/Denver,,True
el-paso,https://wetter.com/vereinigte-staaten/el-paso/US5520993.html,31.7587,-106.4869,America/Denver,,True
sturgis,https://wetter.com/vereinigte-staaten/sturgis/US5769489.html,44.4097,-103.5091,America/Denver,,True
custer,https://wetter.com/vereinigte-staaten/custer/US5763910.html,43.7667,-103.5988,America/Denver,,True
socorro,https://wetter.com/vereinigte-staaten/socorro/US5491999.html,34.0584,-106.8914,America/Denver,,True
hot-springs,https://wetter.com/vereinigte-staaten/hot-springs/US5765751.html,43.4317,-103.4744,America/Denver,,True
martin,https://wetter.com/vereinigte-staaten/martin/US5766888.html,43.1725,-101.7327,America/Denver,,True
deadwood,https://wetter.com/vereinigte-staaten/deadwood/US5764048.html,44.3767,-103.7296,America/Denver,,True
rapid-city,https://wetter.com/vereinigte-staaten/rapid-city/US5768233.html,44.0805,-103.231,America/Denver,,True
basin,https://wetter.com/vereinigte-staaten/basin/US5817923.html,44.38,-108.039,America/Denver,,True
belle-fourche,https://wetter.com/vereinigte-staaten/belle-fourche/US5762718.html,44.6714,-103.8522,America/Denver,,True
taos,https://wetter.com/vereinigte-staaten/taos/US5493811.html,36.4073,-105.5731,America/Denver,,True
beach,https://wetter.com/vereinigte-staaten/beach/US5554419.html,46.9181,-104.0044,America/Denver,,True
truth-or-consequences,https://wetter.com/vereinigte-staaten/truth-or-consequences/US5495292.html,33.1284,-107.2528,America/Denver,,True
dickinson,https://wetter.com/vereinigte-staaten/dickinson/US5688789.html,46.8792,-102.7896,America/Denver,,True
hettinger,https://wetter.com/vereinigte-staaten/hettinger/US5689618.html,46.0014,-102.6368,America/Denver,,True
mott,https://wetter.com/vereinigte-staaten/mott/US5690627.html,46.3725,-102.3271,America/Denver,,True
bowman,https://wetter.com/vereinigte-staaten/bowman/US5688127.html,46.1831,-103.3949,America/Denver,,True
lethbridge,https://wetter.com/kanada/lethbridge/CA6053154.html,49.7,-112.8186,America/Edmonton,,True
slave-lake,https://wetter.com/kanada/slave-lake/CA6149374.html,55.2834,-114.769,America/Edmonton,,True
sherwood-park,https://wetter.com/kanada/sherwood-park/CA6146279.html,53.5168,-113.3187,America/Edmonton,,True
leduc,https://wetter.com/kanada/leduc/CA6051562.html,53.2668,-113.552,America/Edmonton,,True
lacombe,https://wetter.com/kanada/lacombe/CA6035615.html,52.4668,-113.7353,America/Edmonton,,True
fort-saskatchewan,https://wetter.com/kanada/fort-saskatchewan/CA5955948.html,53.6981,-113.2138,America/Edmonton,,True
coaldale,https://wetter.com/kanada/coaldale/CA5924417.html,49.7167,-112.6185,America/Edmonton,,True
olds,https://wetter.com/kanada/olds/CA6093347.html,51.7834,-114.102,America/Edmonton,,True
strathmore,https://wetter.com/kanada/strathmore/CA6158023.html,51.0501,-113.3852,America/Edmonton,,True
wetaskiwin,https://wetter.com/kanada/wetaskiwin/CA6179602.html,52.9668,-113.3687,America/Edmonton,,True
peace-river,https://wetter.com/kanada/peace-river/CA6100069.html,56.2372,-117.2918,America/Edmonton,,True
lloydminster,https://wetter.com/kanada/lloydminster/CA6058024.html,53.2724,-110.0226,America/Edmonton,,True
spruce-grove,https://wetter.com/kanada/spruce-grove/CA6154383.html,53.5334,-113.9187,America/Edmonton,,True
ponoka,https://wetter.com/kanada/ponoka/CA6109273.html,52.6768,-113.5815,America/Edmonton,,True
red-deer,https://wetter.com/kanada/red-deer/CA6118158.html,52.2668,-113.802,America/Edmonton,,True
whitecourt,https://wetter.com/kanada/whitecourt/CA6180285.html,54.1502,-115.6855,America/Edmonton,,True
stony-plain,https://wetter.com/kanada/stony-plain/CA6157536.html,53.5334,-114.0021,America/Edmonton,,True
st-albert,https://wetter.com/kanada/st-albert/CA6155033.html,53.6334,-113.6353,America/Edmonton,,True
morinville,https://wetter.com/kanada/morinville/CA6078636.html,53.8001,-113.652,America/Edmonton,,True
cold-lake,https://wetter.com/kanada/cold-lake/CA5925024.html,54.4653,-110.1815,America/Edmonton,,True
rocky-mountain-house,https://wetter.com/kanada/rocky-mountain-house/CA6126749.html,52.3668,-114.9188,America/Edmonton,,True
medicine-hat,https://wetter.com/kanada/medicine-hat/CA6071618.html,50.0393,-110.6766,America/Edmonton,,True
cranbrook,https://wetter.com/kanada/cranbrook/CA5931800.html,49.4999,-115.7688,America/Edmonton,,True
edson,https://wetter.com/kanada/edson/CA5946820.html,53.5835,-116.4356,America/Edmonton,,True
hay-river,https://wetter.com/kanada/hay-river/CA5972762.html,60.8156,-115.7999,America/Edmonton,,True
ulukhaktok,https://wetter.com/kanada/ulukhaktok/CA5976257.html,70.7364,-117.7716,America/Edmonton,,True
fort-providence,https://wetter.com/kanada/fort-providence/CA5955921.html,61.3503,-117.6528,America/Edmonton,,True
fort-smith,https://wetter.com/kanada/fort-smith/CA5955954.html,60.0044,-111.8887,America/Edmonton,,True
fort-resolution,https://wetter.com/kanada/fort-resolution/CA5955925.html,61.1707,-113.6727,America/Edmonton,,True
gameti,https://wetter.com/kanada/gameti/CA6115754.html,64.112,-117.353,America/Edmonton,,True
yellowknife,https://wetter.com/kanada/yellowknife/CA6185377.html,62.4541,-114.3725,America/Edmonton,,True
airdrie,https://wetter.com/kanada/airdrie/CA5882799.html,51.3001,-114.0353,America/Edmonton,,True
calgary,https://wetter.com/kanada/calgary/CA5913490.html,51.0501,-114.0853,America/Edmonton,,True
wainwright,https://wetter.com/kanada/wainwright/CA6175059.html,52.8348,-110.8534,America/Edmonton,,True
beaumont,https://wetter.com/kanada/beaumont/CA5896522.html,53.3501,-113.4187,America/Edmonton,,True
canmore,https://wetter.com/kanada/canmore/CA5914894.html,51.0834,-115.3521,America/Edmonton,,True
camrose,https://wetter.com/kanada/camrose/CA5914653.html,53.0168,-112.8353,America/Edmonton,,True
banff,https://wetter.com/kanada/banff/CA5892532.html,51.1762,-115.5698,America/Edmonton,,True
cochrane,https://wetter.com/kanada/cochrane/CA5924618.html,51.1834,-114.4687,America/Edmonton,,True
blackfalds,https://wetter.com/kanada/blackfalds/CA5902599.html,52.3834,-113.7853,America/Edmonton,,True
brooks,https://wetter.com/kanada/brooks/CA5909514.html,50.5834,-111.8851,America/Edmonton,,True
hinton,https://wetter.com/kanada/hinton/CA5975503.html,53.4001,-117.5857,America/Edmonton,,True
edmonton,https://wetter.com/kanada/edmonton/CA5946768.html,53.5501,-113.4687,America/Edmonton,,True
high-river,https://wetter.com/kanada/high-river/CA5975038.html,50.5834,-113.8687,America/Edmonton,,True
fort-mcmurray,https://wetter.com/kanada/fort-mcmurray/CA5955895.html,56.7268,-111.381,America/Edmonton,,True
grande-prairie,https://wetter.com/kanada/grande-prairie/CA5964347.html,55.1667,-118.8027,America/Edmonton,,True
okotoks,https://wetter.com/kanada/okotoks/CA6093010.html,50.7289,-113.9828,America/Edmonton,,True
taber,https://wetter.com/kanada/taber/CA6160919.html,49.787,-112.146,America/Edmonton,,True
mazatan,https://wetter.com/mexiko/mazatan/MX3996328.html,29.005,-110.1379,America/Hermosillo,,True
sahuaripa,https://wetter.com/mexiko/sahuaripa/MX3988265.html,29.0541,-109.234,America/Hermosillo,,True
pitiquito,https://wetter.com/mexiko/pitiquito/MX3992405.html,30.6766,-112.0547,America/Hermosillo,,True
navojoa,https://wetter.com/mexiko/navojoa/MX3995019.html,27.0703,-109.4437,America/Hermosillo,,True
magdalena-de-kino,https://wetter.com/mexiko/magdalena-de-kino/MX3996893.html,30.6279,-110.962,America/Hermosillo,,True
san-ignacio-rio-muerto,https://wetter.com/mexiko/san-ignacio-rio-muerto/MX3970558.html,27.4166,-110.2458,America/Hermosillo,,True
heroica-caborca,https://wetter.com/mexiko/heroica-caborca/MX4004887.html,30.7183,-112.1582,America/Hermosillo,,True
villa-hidalgo,https://wetter.com/mexiko/villa-hidalgo/MX3971332.html,30.1618,-109.3215,America/Hermosillo,,True
moctezuma-sonora,https://wetter.com/mexiko/moctezuma-sonora/MX3995647.html,29.8062,-109.6795,America/Hermosillo,,True
nacozari-de-garcia,https://wetter.com/mexiko/nacozari-de-garcia/MX3995157.html,30.3749,-109.689,America/Hermosillo,,True
tepache,https://wetter.com/mexiko/tepache/MX3982016.html,29.5328,-109.5313,America/Hermosillo,,True
ures-municipality,https://wetter.com/mexiko/ures-municipality/MX3980782.html,29.4271,-110.3876,America/Hermosillo,,True
sonoita,https://wetter.com/mexiko/sonoita/MX3982837.html,31.8617,-112.8513,America/Hermosillo,,True
huatabampo,https://wetter.com/mexiko/huatabampo/MX4004647.html,26.8261,-109.6422,America/Hermosillo,,True
san-luis-rio-colorado,https://wetter.com/mexiko/san-luis-rio-colorado/MX3985604.html,32.4561,-114.7719,America/Hermosillo,,True
santa-ana,https://wetter.com/mexiko/santa-ana/MX3984717.html,30.5408,-111.1189,America/Hermosillo,,True
trincheras,https://wetter.com/mexiko/trincheras/MX3999210.html,30.3981,-111.5302,America/Hermosillo,,True
rayon,https://wetter.com/mexiko/rayon/MX3988925.html,29.712,-110.5675,America/Hermosillo,,True
cananea,https://wetter.com/mexiko/cananea/MX4015700.html,30.987,-110.2906,America/Hermosillo,,True
guaymas,https://wetter.com/mexiko/guaymas/MX4005143.html,27.9193,-110.8976,America/Hermosillo,,True
cumpas,https://wetter.com/mexiko/cumpas/MX4012143.html,29.9959,-109.7809,America/Hermosillo,,True
arizpe,https://wetter.com/mexiko/arizpe/MX4018238.html,30.3369,-110.1665,America/Hermosillo,,True
yecora,https://wetter.com/mexiko/yecora/MX3979954.html,28.3715,-108.9278,America/Hermosillo,,True
empalme,https://wetter.com/mexiko/empalme/MX4006806.html,27.9617,-110.8141,America/Hermosillo,,True
carbo,https://wetter.com/mexiko/carbo/MX8764398.html,29.6831,-110.9562,America/Hermosillo,,True
ciudad-obregon,https://wetter.com/mexiko/ciudad-obregon/MX4013704.html,27.4864,-109.9408,America/Hermosillo,,True
altar,https://wetter.com/mexiko/altar/MX4018699.html,30.7154,-111.837,America/Hermosillo,,True
baviacora,https://wetter.com/mexiko/baviacora/MX4017249.html,29.7135,-110.1631,America/Hermosillo,,True
banamichi,https://wetter.com/mexiko/banamichi/MX4017582.html,30.0074,-110.2159,America/Hermosillo,,True
bacadehuachi,https://wetter.com/mexiko/bacadehuachi/MX4017837.html,29.8087,-109.1405,America/Hermosillo,,True
agua-prieta,https://wetter.com/mexiko/agua-prieta/MX4019260.html,31.3307,-109.5488,America/Hermosillo,,True
alamos,https://wetter.com/mexiko/alamos/MX4018904.html,27.0233,-108.9344,America/Hermosillo,,True
aconchi,https://wetter.com/mexiko/aconchi/MX4019764.html,29.8263,-110.2249,America/Hermosillo,,True
hermosillo,https://wetter.com/mexiko/hermosillo/MX4004898.html,29.1026,-110.9773,America/Hermosillo,,True
bacum,https://wetter.com/mexiko/bacum/MX4017758.html,27.5514,-110.0833,America/Hermosillo,,True
benjamin-hill,https://wetter.com/mexiko/benjamin-hill/MX4017152.html,30.169,-111.114,America/Hermosillo,,True
etchojoa,https://wetter.com/mexiko/etchojoa/MX4006388.html,26.9109,-109.6261,America/Hermosillo,,True
granados,https://wetter.com/mexiko/granados/MX4005715.html,29.862,-109.3102,America/Hermosillo,,True
naco,https://wetter.com/mexiko/naco/MX3995171.html,31.327,-109.9467,America/Hermosillo,,True
villa-juarez,https://wetter.com/mexiko/villa-juarez/MX3980161.html,27.1285,-109.8392,America/Hermosillo,,True
norman-wells,https://wetter.com/kanada/norman-wells/CA6089245.html,65.282,-126.8329,America/Inuvik,,True
tulita,https://wetter.com/kanada/tulita/CA6170056.html,64.9017,-125.5741,America/Inuvik,,True
fort-liard,https://wetter.com/kanada/fort-liard/CA5955887.html,60.2395,-123.4737,America/Inuvik,,True
inuvik,https://wetter.com/kanada/inuvik/CA5983607.html,68.3617,-133.7282,America/Inuvik,,True
tuktoyaktuk,https://wetter.com/kanada/tuktoyaktuk/CA6170031.html,69.4447,-133.0342,America/Inuvik,,True
nahanni-butte,https://wetter.com/kanada/nahanni-butte/CA6085532.html,61.0335,-123.3864,America/Inuvik,,True
tsiigehtchic,https://wetter.com/kanada/tsiigehtchic/CA6169740.html,67.4429,-133.7437,America/Inuvik,,True
wrigley,https://wetter.com/kanada/wrigley/CA6184824.html,63.2237,-123.4572,America/Inuvik,,True
paulatuk,https://wetter.com/kanada/paulatuk/CA6099793.html,69.351,-124.0689,America/Inuvik,,True
fort-good-hope,https://wetter.com/kanada/fort-good-hope/CA5955840.html,66.257,-128.6374,America/Inuvik,,True
aklavik,https://wetter.com/kanada/aklavik/CA5882953.html,68.2191,-135.0107,America/Inuvik,,True
fort-mcpherson,https://wetter.com/kanada/fort-mcpherson/CA5955898.html,67.4386,-134.8854,America/Inuvik,,True
fort-simpson,https://wetter.com/kanada/fort-simpson/CA5955953.html,61.8627,-121.3516,America/Inuvik,,True
tuxpan,https://wetter.com/mexiko/tuxpan/MX3980841.html,21.9422,-105.2987,America/Mazatlan,,True
ruiz,https://wetter.com/mexiko/ruiz/MX3988361.html,21.9511,-105.1438,America/Mazatlan,,True
san-pedro-lagunillas,https://wetter.com/mexiko/san-pedro-lagunillas/MX3985019.html,21.2192,-104.7523,America/Mazatlan,,True
la-penita-de-jaltomba,https://wetter.com/mexiko/la-penita-de-jaltomba/MX3992996.html,21.0388,-105.2479,America/Mazatlan,,True
santa-maria-del-oro,https://wetter.com/mexiko/santa-maria-del-oro/MX3984079.html,21.3339,-104.587,America/Mazatlan,,True
puga,https://wetter.com/mexiko/puga/MX3991323.html,21.5844,-104.8232,America/Mazatlan,,True
navarrete,https://wetter.com/mexiko/navarrete/MX3995038.html,21.6484,-105.1154,America/Mazatlan,,True
jalcocotan,https://wetter.com/mexiko/jalcocotan/MX4004161.html,21.4812,-105.0985,America/Mazatlan,,True
villa-hidalgo,https://wetter.com/mexiko/villa-hidalgo/MX3980168.html,21.7419,-105.231,America/Mazatlan,,True
santiago-ixcuintla,https://wetter.com/mexiko/santiago-ixcuintla/MX3983636.html,21.813,-105.2084,America/Mazatlan,,True
pantanal,https://wetter.com/mexiko/pantanal/MX3993514.html,21.4282,-104.8612,America/Mazatlan,,True
adolfo-ruiz-cortines,https://wetter.com/mexiko/adolfo-ruiz-cortines/MX4019727.html,25.75,-108.75,America/Mazatlan,,True
guamuchil,https://wetter.com/mexiko/guamuchil/MX4005297.html,25.4587,-108.0773,America/Mazatlan,,True
el-rosario,https://wetter.com/mexiko/el-rosario/MX3988416.html,22.9921,-105.857,America/Mazatlan,,True
el-dorado,https://wetter.com/mexiko/el-dorado/MX4009984.html,24.3228,-107.363,America/Mazatlan,,True
san-vicente,https://wetter.com/mexiko/san-vicente/MX3983481.html,21.9504,-105.2971,America/Mazatlan,,True
villa-mexico,https://wetter.com/mexiko/villa-mexico/MX3980146.html,24.8333,-112.1,America/Mazatlan,,True
todos-santos,https://wetter.com/mexiko/todos-santos/MX3981432.html,23.4469,-110.2231,America/Mazatlan,,True
villa-hidalgo,https://wetter.com/mexiko/villa-hidalgo/MX4021895.html,25.1461,-111.9322,America/Mazatlan,,True
santa-rosalia,https://wetter.com/mexiko/santa-rosalia/MX3983805.html,27.3404,-112.2671,America/Mazatlan,,True
santa-monica,https://wetter.com/mexiko/santa-monica/MX4021850.html,27.5441,-114.5205,America/Mazatlan,,True
san-simon,https://wetter.com/mexiko/san-simon/MX3984781.html,23.6581,-110.0456,America/Mazatlan,,True
el-sargento,https://wetter.com/mexiko/el-sargento/MX4022397.html,24.0835,-109.994,America/Mazatlan,,True
higuera-de-zaragoza,https://wetter.com/mexiko/higuera-de-zaragoza/MX4004850.html,25.9689,-109.3042,America/Mazatlan,,True
tecuala,https://wetter.com/mexiko/tecuala/MX3982168.html,22.3982,-105.4581,America/Mazatlan,,True
los-mochis,https://wetter.com/mexiko/los-mochis/MX3997479.html,25.793,-108.9981,America/Mazatlan,,True
san-luis-de-lozada,https://wetter.com/mexiko/san-luis-de-lozada/MX3985615.html,21.503,-104.7055,America/Mazatlan,,True
la-yesca,https://wetter.com/mexiko/la-yesca/MX3998730.html,21.3187,-104.0116,America/Mazatlan,,True
jala,https://wetter.com/mexiko/jala/MX4004170.html,21.1048,-104.4376,America/Mazatlan,,True
ahuacatlan,https://wetter.com/mexiko/ahuacatlan/MX4019089.html,21.0541,-104.484,America/Mazatlan,,True
autan,https://wetter.com/mexiko/autan/MX4017959.html,21.6897,-105.3075,America/Mazatlan,,True
ixtlan-del-rio,https://wetter.com/mexiko/ixtlan-del-rio/MX4004267.html,21.0391,-104.3712,America/Mazatlan,,True
compostela,https://wetter.com/mexiko/compostela/MX4013085.html,21.2378,-104.9001,America/Mazatlan,,True
amatlan-de-canas,https://wetter.com/mexiko/amatlan-de-canas/MX4018592.html,20.807,-104.4041,America/Mazatlan,,True
acaponeta,https://wetter.com/mexiko/acaponeta/MX4019819.html,22.494,-105.3637,America/Mazatlan,,True
choix,https://wetter.com/mexiko/choix/MX4014109.html,26.709,-108.3255,America/Mazatlan,,True
san-blas,https://wetter.com/mexiko/san-blas/MX3987544.html,21.5433,-105.2856,America/Mazatlan,,True
chihuahuita,https://wetter.com/mexiko/chihuahuita/MX3976938.html,26.1547,-109.055,America/Mazatlan,,True
badiraguato,https://wetter.com/mexiko/badiraguato/MX4017743.html,25.3653,-107.5508,America/Mazatlan,,True
tepic,https://wetter.com/mexiko/tepic/MX3981941.html,21.5095,-104.8957,America/Mazatlan,,True
san-ignacio,https://wetter.com/mexiko/san-ignacio/MX3986862.html,23.9411,-106.4247,America/Mazatlan,,True
isla-del-bosque,https://wetter.com/mexiko/isla-del-bosque/MX3976232.html,22.7331,-105.8456,America/Mazatlan,,True
juan-jose-rios,https://wetter.com/mexiko/juan-jose-rios/MX4005864.html,25.7578,-108.8242,America/Mazatlan,,True
el-rosario,https://wetter.com/mexiko/el-rosario/MX4007812.html,24.2556,-107.1828,America/Mazatlan,,True
cosala,https://wetter.com/mexiko/cosala/MX4012707.html,24.415,-106.6907,America/Mazatlan,,True
san-juanico,https://wetter.com/mexiko/san-juanico/MX4022043.html,26.2561,-112.4802,America/Mazatlan,,True
san-blas,https://wetter.com/mexiko/san-blas/MX3987538.html,26.0802,-108.7611,America/Mazatlan,,True
mocorito,https://wetter.com/mexiko/mocorito/MX3995652.html,25.482,-107.9201,America/Mazatlan,,True
jesus-maria,https://wetter.com/mexiko/jesus-maria/MX3995013.html,22.2506,-104.5179,America/Mazatlan,,True
las-varas,https://wetter.com/mexiko/las-varas/MX3999162.html,21.1802,-105.136,America/Mazatlan,,True
rosamorada,https://wetter.com/mexiko/rosamorada/MX3988421.html,22.1221,-105.2064,America/Mazatlan,,True
san-felipe-aztatan,https://wetter.com/mexiko/san-felipe-aztatan/MX3987245.html,22.3837,-105.4198,America/Mazatlan,,True
guasave,https://wetter.com/mexiko/guasave/MX4005219.html,25.5675,-108.4676,America/Mazatlan,,True
las-compuertas,https://wetter.com/mexiko/las-compuertas/MX4013081.html,25.842,-109.0198,America/Mazatlan,,True
la-picota,https://wetter.com/mexiko/la-picota/MX4000823.html,25.0844,-111.2324,America/Mazatlan,,True
san-dionisio-quepo,https://wetter.com/mexiko/san-dionisio-quepo/MX3991173.html,25.3232,-111.323,America/Mazatlan,,True
atonalisco,https://wetter.com/mexiko/atonalisco/MX4018018.html,21.6655,-104.8395,America/Mazatlan,,True
navolato,https://wetter.com/mexiko/navolato/MX3995017.html,24.7661,-107.7023,America/Mazatlan,,True
sinaloa-de-leyva,https://wetter.com/mexiko/sinaloa-de-leyva/MX3983032.html,25.8219,-108.2226,America/Mazatlan,,True
ojo-de-agua-de-palmillas,https://wetter.com/mexiko/ojo-de-agua-de-palmillas/MX3976175.html,22.6197,-105.6039,America/Mazatlan,,True
la-trinidad,https://wetter.com/mexiko/la-trinidad/MX3998956.html,25.7337,-108.4841,America/Mazatlan,,True
el-fuerte,https://wetter.com/mexiko/el-fuerte/MX4009788.html,26.4169,-108.6183,America/Mazatlan,,True
escuinapa,https://wetter.com/mexiko/escuinapa/MX4006622.html,22.8328,-105.7777,America/Mazatlan,,True
villa-union,https://wetter.com/mexiko/villa-union/MX3980125.html,23.1899,-106.2195,America/Mazatlan,,True
villa-juarez,https://wetter.com/mexiko/villa-juarez/MX4015938.html,24.6587,-107.5406,America/Mazatlan,,True
boca-de-la-sierra,https://wetter.com/mexiko/boca-de-la-sierra/MX4022440.html,23.3879,-109.8173,America/Mazatlan,,True
el-pescadero,https://wetter.com/mexiko/el-pescadero/MX4022368.html,23.3642,-110.1683,America/Mazatlan,,True
el-ojo-de-agua,https://wetter.com/mexiko/el-ojo-de-agua/MX3994369.html,26.3274,-111.9844,America/Mazatlan,,True
ciudad-insurgentes,https://wetter.com/mexiko/ciudad-insurgentes/MX4011574.html,25.2635,-111.7744,America/Mazatlan,,True
el-barranco,https://wetter.com/mexiko/el-barranco/MX4022396.html,23.3496,-110.0039,America/Mazatlan,,True
bahia-asuncion,https://wetter.com/mexiko/bahia-asuncion/MX4021921.html,27.1423,-114.2958,America/Mazatlan,,True
cabo-san-lucas,https://wetter.com/mexiko/cabo-san-lucas/MX3985710.html,22.8909,-109.9124,America/Mazatlan,,True
calagua,https://wetter.com/mexiko/calagua/MX4022105.html,26.3557,-111.8331,America/Mazatlan,,True
mazatlan,https://wetter.com/mexiko/mazatlan/MX3996322.html,23.2329,-106.4062,America/Mazatlan,,True
leyva-solano,https://wetter.com/mexiko/leyva-solano/MX3976775.html,25.6616,-108.637,America/Mazatlan,,True
culiacan,https://wetter.com/mexiko/culiacan/MX4012176.html,24.7903,-107.3878,America/Mazatlan,,True
ahome,https://wetter.com/mexiko/ahome/MX4019098.html,25.9199,-109.1732,America/Mazatlan,,True
campo-balbuena,https://wetter.com/mexiko/campo-balbuena/MX4015968.html,24.7469,-107.5498,America/Mazatlan,,True
zacualpan,https://wetter.com/mexiko/zacualpan/MX3979819.html,21.2472,-105.1657,America/Mazatlan,,True
yago,https://wetter.com/mexiko/yago/MX3979983.html,21.836,-105.0645,America/Mazatlan,,True
xalisco,https://wetter.com/mexiko/xalisco/MX4004159.html,21.451,-104.8983,America/Mazatlan,,True
maripa,https://wetter.com/mexiko/maripa/MX3996543.html,25.8637,-108.1574,America/Mazatlan,,True
angostura,https://wetter.com/mexiko/angostura/MX4018499.html,25.3659,-108.1611,America/Mazatlan,,True
chametla,https://wetter.com/mexiko/chametla/MX4014579.html,22.8775,-105.9575,America/Mazatlan,,True
la-cruz,https://wetter.com/mexiko/la-cruz/MX4002745.html,23.9213,-106.8925,America/Mazatlan,,True
tamazula,https://wetter.com/mexiko/tamazula/MX3982573.html,25.4464,-108.4553,America/Mazatlan,,True
topolobampo,https://wetter.com/mexiko/topolobampo/MX3981345.html,25.6008,-109.0523,America/Mazatlan,,True
los-angeles,https://wetter.com/mexiko/los-angeles/MX3998147.html,25.6029,-108.481,America/Mazatlan,,True
villa-de-costa-rica,https://wetter.com/mexiko/villa-de-costa-rica/MX4012693.html,24.5917,-107.3884,America/Mazatlan,,True
ejido-mayocoba,https://wetter.com/mexiko/ejido-mayocoba/MX3996349.html,25.9382,-109.2213,America/Mazatlan,,True
san-carlos,https://wetter.com/mexiko/san-carlos/MX4022141.html,24.9007,-111.6732,America/Mazatlan,,True
ciudad-constitucion,https://wetter.com/mexiko/ciudad-constitucion/MX4013723.html,25.0321,-111.6626,America/Mazatlan,,True
plutarco-elias-calles,https://wetter.com/mexiko/plutarco-elias-calles/MX4022365.html,23.221,-110.1426,America/Mazatlan,,True
san-bruno,https://wetter.com/mexiko/san-bruno/MX3987513.html,27.1608,-112.159,America/Mazatlan,,True
punta-prieta,https://wetter.com/mexiko/punta-prieta/MX3991261.html,27.0157,-114.0429,America/Mazatlan,,True
la-ventana,https://wetter.com/mexiko/la-ventana/MX3998853.html,24.0518,-109.9892,America/Mazatlan,,True
mulege,https://wetter.com/mexiko/mulege/MX3995236.html,26.8914,-111.9826,America/Mazatlan,,True
loreto,https://wetter.com/mexiko/loreto/MX3998287.html,26.0122,-111.3489,America/Mazatlan,,True
san-jose-del-cabo,https://wetter.com/mexiko/san-jose-del-cabo/MX3986172.html,23.0541,-109.7037,America/Mazatlan,,True
puerto-alcatraz,https://wetter.com/mexiko/puerto-alcatraz/MX4022098.html,24.5049,-111.8461,America/Mazatlan,,True
san-pedro-mexico,https://wetter.com/mexiko/san-pedro-mexico/MX4022422.html,23.9707,-109.8967,America/Mazatlan,,True
san-juan-de-la-costa,https://wetter.com/mexiko/san-juan-de-la-costa/MX3985884.html,24.3736,-110.6898,America/Mazatlan,,True
puerto-escondido,https://wetter.com/mexiko/puerto-escondido/MX3991361.html,25.813,-111.3125,America/Mazatlan,,True
san-ignacio,https://wetter.com/mexiko/san-ignacio/MX4022217.html,24.7245,-111.3059,America/Mazatlan,,True
los-cerritos,https://wetter.com/mexiko/los-cerritos/MX3997974.html,25.1897,-111.4151,America/Mazatlan,,True
la-cuesta-de-la-palma,https://wetter.com/mexiko/la-cuesta-de-la-palma/MX4001025.html,23.2639,-109.7585,America/Mazatlan,,True
rincon-de-guayabitos,https://wetter.com/mexiko/rincon-de-guayabitos/MX3988681.html,21.0232,-105.2705,America/Mazatlan,,True
los-barriles,https://wetter.com/mexiko/los-barriles/MX3998075.html,23.6827,-109.6995,America/Mazatlan,,True
guerrero-negro,https://wetter.com/mexiko/guerrero-negro/MX4021858.html,27.9601,-114.0559,America/Mazatlan,,True
la-paz,https://wetter.com/mexiko/la-paz/MX4000900.html,24.1423,-110.3132,America/Mazatlan,,True
la-ventana,https://wetter.com/mexiko/la-ventana/MX4022076.html,26.4686,-112.1514,America/Mazatlan,,True
punta-banderitas,https://wetter.com/mexiko/punta-banderitas/MX4022080.html,24.8667,-112.1167,America/Mazatlan,,True
la-trinidad,https://wetter.com/mexiko/la-trinidad/MX3981016.html,23.3883,-109.5639,America/Mazatlan,,True
bisbee,https://wetter.com/vereinigte-staaten/bisbee/US5284905.html,31.4482,-109.9284,America/Phoenix,,True
avondale,https://wetter.com/vereinigte-staaten/avondale/US5552301.html,33.4356,-112.3496,America/Phoenix,,True
casa-grande,https://wetter.com/vereinigte-staaten/casa-grande/US5288636.html,32.8795,-111.7574,America/Phoenix,,True
prescott,https://wetter.com/vereinigte-staaten/prescott/US5309842.html,34.54,-112.4685,America/Phoenix,,True
mesa,https://wetter.com/vereinigte-staaten/mesa/US5304391.html,33.4223,-111.8226,America/Phoenix,,True
ahwatukee-foothills,https://wetter.com/vereinigte-staaten/ahwatukee-foothills/US5552450.html,33.3417,-111.984,America/Phoenix,,True
saint-johns,https://wetter.com/vereinigte-staaten/saint-johns/US5312595.html,34.5059,-109.3609,America/Phoenix,,True
parker,https://wetter.com/vereinigte-staaten/parker/US5308116.html,34.15,-114.2891,America/Phoenix,,True
nogales,https://wetter.com/vereinigte-staaten/nogales/US5306611.html,31.3404,-110.9343,America/Phoenix,,True
phoenix,https://wetter.com/vereinigte-staaten/phoenix/US5308655.html,33.4484,-112.074,America/Phoenix,,True
sierra-vista,https://wetter.com/vereinigte-staaten/sierra-vista/US5314328.html,31.5545,-110.3037,America/Phoenix,,True
lake-havasu-city,https://wetter.com/vereinigte-staaten/lake-havasu-city/US5301388.html,34.4839,-114.3225,America/Phoenix,,True
prescott-valley,https://wetter.com/vereinigte-staaten/prescott-valley/US5309858.html,34.61,-112.3157,America/Phoenix,,True
scottsdale,https://wetter.com/vereinigte-staaten/scottsdale/US5313457.html,33.5092,-111.899,America/Phoenix,,True
safford,https://wetter.com/vereinigte-staaten/safford/US5312476.html,32.834,-109.7076,America/Phoenix,,True
surprise,https://wetter.com/vereinigte-staaten/surprise/US5316428.html,33.6306,-112.3332,America/Phoenix,,True
tucson,https://wetter.com/vereinigte-staaten/tucson/US5318313.html,32.2217,-110.9265,America/Phoenix,,True
tempe-junction,https://wetter.com/vereinigte-staaten/tempe-junction/US5317071.html,33.4142,-111.9435,America/Phoenix,,True
yuma,https://wetter.com/vereinigte-staaten/yuma/US5322053.html,32.7253,-114.6244,America/Phoenix,,True
maricopa,https://wetter.com/vereinigte-staaten/maricopa/US5303752.html,33.0581,-112.0476,America/Phoenix,,True
peoria,https://wetter.com/vereinigte-staaten/peoria/US5308480.html,33.5806,-112.2374,America/Phoenix,,True
kingman,https://wetter.com/vereinigte-staaten/kingman/US5301067.html,35.1894,-114.053,America/Phoenix,,True
flagstaff,https://wetter.com/vereinigte-staaten/flagstaff/US5294810.html,35.1981,-111.6513,America/Phoenix,,True
goodyear,https://wetter.com/vereinigte-staaten/goodyear/US5296266.html,33.4353,-112.3582,America/Phoenix,,True
florence,https://wetter.com/vereinigte-staaten/florence/US5294902.html,33.0315,-111.3873,America/Phoenix,,True
clifton,https://wetter.com/vereinigte-staaten/clifton/US5290124.html,33.0509,-109.2962,America/Phoenix,,True
bullhead-city,https://wetter.com/vereinigte-staaten/bullhead-city/US5287565.html,35.1478,-114.5683,America/Phoenix,,True
deer-valley,https://wetter.com/vereinigte-staaten/deer-valley/US5292387.html,33.6839,-112.1349,America/Phoenix,,True
casas-adobes,https://wetter.com/vereinigte-staaten/casas-adobes/US5288661.html,32.3234,-110.9951,America/Phoenix,,True
chandler,https://wetter.com/vereinigte-staaten/chandler/US5289282.html,33.3062,-111.8413,America/Phoenix,,True
apache-junction,https://wetter.com/vereinigte-staaten/apache-junction/US5551535.html,33.4151,-111.5496,America/Phoenix,,True
buckeye,https://wetter.com/vereinigte-staaten/buckeye/US5287262.html,33.3703,-112.5838,America/Phoenix,,True
oro-valley,https://wetter.com/vereinigte-staaten/oro-valley/US5307540.html,32.3909,-110.9665,America/Phoenix,,True
glendale,https://wetter.com/vereinigte-staaten/glendale/US5295985.html,33.5387,-112.186,America/Phoenix,,True
gilbert,https://wetter.com/vereinigte-staaten/gilbert/US5295903.html,33.3528,-111.789,America/Phoenix,,True
tempe,https://wetter.com/vereinigte-staaten/tempe/US5317058.html,33.4148,-111.9093,America/Phoenix,,True
marana,https://wetter.com/vereinigte-staaten/marana/US5303705.html,32.4367,-111.2254,America/Phoenix,,True
globe,https://wetter.com/vereinigte-staaten/globe/US5296013.html,33.3942,-110.7865,America/Phoenix,,True
catalina-foothills,https://wetter.com/vereinigte-staaten/catalina-foothills/US5288786.html,32.2979,-110.9187,America/Phoenix,,True
holbrook,https://wetter.com/vereinigte-staaten/holbrook/US5284580.html,34.9023,-110.1582,America/Phoenix,,True
watson-lake,https://wetter.com/kanada/watson-lake/CA6176992.html,60.0635,-128.7089,America/Whitehorse,,True
teslin,https://wetter.com/kanada/teslin/CA6163081.html,60.1662,-132.7243,America/Whitehorse,,True
whitehorse,https://wetter.com/kanada/whitehorse/CA6180550.html,60.7161,-135.0538,America/Whitehorse,,True
mayo-road,https://wetter.com/kanada/mayo-road/CA6955561.html,60.9106,-135.221,America/Whitehorse,,True
mayo,https://wetter.com/kanada/mayo/CA6068416.html,63.5927,-135.8998,America/Whitehorse,,True
robinson-subdivision,https://wetter.com/kanada/robinson-subdivision/CA6125706.html,60.4692,-134.8335,America/Whitehorse,,True
haines-junction,https://wetter.com/kanada/haines-junction/CA5969025.html,60.7522,-137.5108,America/Whitehorse,,True
faro,https://wetter.com/kanada/faro/CA5951659.html,62.2305,-133.3533,America/Whitehorse,,True
carmacks,https://wetter.com/kanada/carmacks/CA5917270.html,62.0884,-136.293,America/Whitehorse,,True
carcross,https://wetter.com/kanada/carcross/CA5916754.html,60.1661,-134.7037,America/Whitehorse,,True
