City,URL,Latitude,Longitude,Timezone,Error
novopavlovka,https://wetter.com/russland/novopavlovka/RU2018896.html,51.2172,109.2131,Asia/Chita,
shilka,https://wetter.com/russland/shilka/RU2016708.html,51.85,116.0333,Asia/Chita,
pervomayskiy,https://wetter.com/russland/pervomayskiy/RU2018021.html,51.6701,115.6254,Asia/Chita,
mogoytuy,https://wetter.com/russland/mogoytuy/RU2019892.html,51.2833,114.9167,Asia/Chita,
mogotscha,https://wetter.com/russland/mogotscha/RU2019912.html,53.7342,119.7652,Asia/Chita,
tschita,https://wetter.com/russland/tschita/RU0CT0001.html,52.0317,113.5009,Asia/Chita,
mogzon,https://wetter.com/russland/mogzon/RU2019884.html,51.7406,111.9656,Asia/Chita,
sherlovaya-gora,https://wetter.com/russland/sherlovaya-gora/RU2016735.html,50.5667,116.25,Asia/Chita,
nertschinsk,https://wetter.com/russland/nertschinsk/RU2019326.html,51.9833,116.5833,Asia/Chita,
priargunsk,https://wetter.com/russland/priargunsk/RU2017646.html,50.3691,119.1012,Asia/Chita,
sretensk,https://wetter.com/russland/sretensk/RU2016110.html,52.2478,117.7084,Asia/Chita,
olowjannaja,https://wetter.com/russland/olowjannaja/RU2018498.html,50.95,115.5667,Asia/Chita,
zhireken,https://wetter.com/russland/zhireken/RU2012510.html,52.8266,117.3073,Asia/Chita,
vershino-darasunskiy,https://wetter.com/russland/vershino-darasunskiy/RU2013442.html,52.366,115.5266,Asia/Chita,
yasnogorsk,https://wetter.com/russland/yasnogorsk/RU11951842.html,50.8734,115.6956,Asia/Chita,
ulety,https://wetter.com/russland/ulety/RU2014369.html,51.3559,112.4843,Asia/Chita,
zabaykal-sk,https://wetter.com/russland/zabaykal-sk/RU2012780.html,49.6513,117.3256,Asia/Chita,
novokruchininskiy,https://wetter.com/russland/novokruchininskiy/RU2018925.html,51.7836,113.7759,Asia/Chita,
petrovsk-zabaykal-skiy,https://wetter.com/russland/petrovsk-zabaykal-skiy/RU2017945.html,51.2753,108.843,Asia/Chita,
kyra,https://wetter.com/russland/kyra/RU2021041.html,49.579,111.9764,Asia/Chita,
chernyshevsk,https://wetter.com/russland/chernyshevsk/RU2025458.html,52.5221,117.0171,Asia/Chita,
baley,https://wetter.com/russland/baley/RU2027184.html,51.5817,116.634,Asia/Chita,
kalga,https://wetter.com/russland/kalga/RU2023286.html,50.9254,118.8996,Asia/Chita,
bada,https://wetter.com/russland/bada/RU2027275.html,51.391,109.8615,Asia/Chita,
aksha,https://wetter.com/russland/aksha/RU2028028.html,50.2814,113.2867,Asia/Chita,
kuanda,https://wetter.com/russland/kuanda/RU2055815.html,56.3161,116.0806,Asia/Chita,
darasun,https://wetter.com/russland/darasun/RU2025121.html,51.6594,113.9752,Asia/Chita,
aginskoje,https://wetter.com/russland/aginskoje/RU2028078.html,51.1,114.53,Asia/Chita,
borzya,https://wetter.com/russland/borzya/RU2026126.html,50.3833,116.5167,Asia/Chita,
makkaveyevo,https://wetter.com/russland/makkaveyevo/RU2020559.html,51.7533,113.9454,Asia/Chita,
atamanovka,https://wetter.com/russland/atamanovka/RU2027373.html,51.9333,113.6333,Asia/Chita,
dauriya,https://wetter.com/russland/dauriya/RU2025099.html,49.9333,116.8667,Asia/Chita,
karymskoje,https://wetter.com/russland/karymskoje/RU2023094.html,51.6167,114.35,Asia/Chita,
domna,https://wetter.com/russland/domna/RU2024893.html,51.8971,113.1573,Asia/Chita,
krasnyy-chikoy,https://wetter.com/russland/krasnyy-chikoy/RU2012349.html,50.3632,108.7545,Asia/Chita,
chilok,https://wetter.com/russland/chilok/RU2022463.html,51.3678,110.468,Asia/Chita,
dul-durga,https://wetter.com/russland/dul-durga/RU2024812.html,50.6761,113.5931,Asia/Chita,
krasnokamensk,https://wetter.com/russland/krasnokamensk/RU2021618.html,50.0979,118.0369,Asia/Chita,
kokuy,https://wetter.com/russland/kokuy/RU2021908.html,52.2063,117.5541,Asia/Chita,
novaya-chara,https://wetter.com/russland/novaya-chara/RU2055822.html,56.8164,118.2986,Asia/Chita,
libaulelo,https://wetter.com/timor-leste/libaulelo/TL1942369.html,-8.57,125.4922,Asia/Dili,
ossohuna,https://wetter.com/timor-leste/ossohuna/TL1943310.html,-8.6536,126.6258,Asia/Dili,
waabe,https://wetter.com/timor-leste/waabe/TL1944707.html,-8.9711,125.3808,Asia/Dili,
aileu,https://wetter.com/timor-leste/aileu/TL1651816.html,-8.7281,125.5664,Asia/Dili,
kokoa,https://wetter.com/timor-leste/kokoa/TL1943034.html,-8.6989,125.465,Asia/Dili,
manama,https://wetter.com/timor-leste/manama/TL1944604.html,-8.7969,125.4581,Asia/Dili,
tarmausoru,https://wetter.com/timor-leste/tarmausoru/TL1943048.html,-8.6944,125.3975,Asia/Dili,
railete,https://wetter.com/timor-leste/railete/TL1943756.html,-8.7489,125.3428,Asia/Dili,
pohei,https://wetter.com/timor-leste/pohei/TL1944669.html,-8.7572,125.4203,Asia/Dili,
erhetu,https://wetter.com/timor-leste/erhetu/TL1944694.html,-8.8344,125.5203,Asia/Dili,
aileukota,https://wetter.com/timor-leste/aileukota/TL1943146.html,-8.7246,125.5654,Asia/Dili,
lahae,https://wetter.com/timor-leste/lahae/TL1945070.html,-8.7903,125.56,Asia/Dili,
lebudo,https://wetter.com/timor-leste/lebudo/TL1943168.html,-8.6726,125.5058,Asia/Dili,
poehati,https://wetter.com/timor-leste/poehati/TL1944666.html,-8.7664,125.4156,Asia/Dili,
kairia,https://wetter.com/timor-leste/kairia/TL1944585.html,-8.8419,125.4306,Asia/Dili,
raidu,https://wetter.com/timor-leste/raidu/TL1943057.html,-8.6753,125.4192,Asia/Dili,
malimea,https://wetter.com/timor-leste/malimea/TL1944725.html,-8.9461,125.3892,Asia/Dili,
lakubu,https://wetter.com/timor-leste/lakubu/TL1944837.html,-8.9733,125.3736,Asia/Dili,
raelau,https://wetter.com/timor-leste/raelau/TL1944770.html,-8.8997,125.4181,Asia/Dili,
laulema,https://wetter.com/timor-leste/laulema/TL1943739.html,-8.7194,125.3061,Asia/Dili,
orbeto,https://wetter.com/timor-leste/orbeto/TL1944790.html,-8.8897,125.3789,Asia/Dili,
asumata,https://wetter.com/timor-leste/asumata/TL1943110.html,-8.7211,125.6799,Asia/Dili,
berlorai,https://wetter.com/timor-leste/berlorai/TL1943137.html,-8.6483,125.6481,Asia/Dili,
motur,https://wetter.com/timor-leste/motur/TL1944968.html,-8.8994,125.3231,Asia/Dili,
samara,https://wetter.com/timor-leste/samara/TL1945001.html,-8.8406,125.2969,Asia/Dili,
samatrai,https://wetter.com/timor-leste/samatrai/TL1944672.html,-8.7597,125.395,Asia/Dili,
santacruz,https://wetter.com/timor-leste/santacruz/TL1945021.html,-8.8125,125.3194,Asia/Dili,
brahua,https://wetter.com/timor-leste/brahua/TL1944856.html,-8.935,125.3236,Asia/Dili,
taimea,https://wetter.com/timor-leste/taimea/TL1945229.html,-9.0192,125.3247,Asia/Dili,
apidou,https://wetter.com/timor-leste/apidou/TL1944668.html,-8.7617,125.4122,Asia/Dili,
hoololo,https://wetter.com/timor-leste/hoololo/TL1943944.html,-9.0878,125.1994,Asia/Dili,
dadubere,https://wetter.com/timor-leste/dadubere/TL1944705.html,-8.9717,125.3842,Asia/Dili,
diaro,https://wetter.com/timor-leste/diaro/TL1945020.html,-8.8097,125.3356,Asia/Dili,
asio,https://wetter.com/timor-leste/asio/TL1944734.html,-8.9242,125.4053,Asia/Dili,
bauana,https://wetter.com/timor-leste/bauana/TL1945064.html,-8.7828,125.3542,Asia/Dili,
tutubaba,https://wetter.com/timor-leste/tutubaba/TL1944018.html,-8.7933,125.1014,Asia/Dili,
berluli,https://wetter.com/timor-leste/berluli/TL1942806.html,-8.7347,125.4111,Asia/Dili,
darlau,https://wetter.com/timor-leste/darlau/TL1942650.html,-8.5949,125.6315,Asia/Dili,
asulau,https://wetter.com/timor-leste/asulau/TL1945053.html,-8.7731,125.3167,Asia/Dili,
dosmagar-kraik,https://wetter.com/timor-leste/dosmagar-kraik/TL1943767.html,-8.7061,125.3186,Asia/Dili,
gaelema,https://wetter.com/timor-leste/gaelema/TL1943750.html,-8.7297,125.3636,Asia/Dili,
haeheu,https://wetter.com/timor-leste/haeheu/TL1944052.html,-8.8317,125.3728,Asia/Dili,
humeta,https://wetter.com/timor-leste/humeta/TL1944631.html,-8.7575,125.4703,Asia/Dili,
foetete,https://wetter.com/timor-leste/foetete/TL1945031.html,-8.8042,125.3083,Asia/Dili,
obeto,https://wetter.com/timor-leste/obeto/TL1944827.html,-8.9778,125.3614,Asia/Dili,
ilat,https://wetter.com/timor-leste/ilat/TL1938336.html,-8.9056,125.3964,Asia/Dili,
marobo,https://wetter.com/timor-leste/marobo/TL1636043.html,-8.9667,125.35,Asia/Dili,
riatoni,https://wetter.com/timor-leste/riatoni/TL1944583.html,-8.8517,125.4389,Asia/Dili,
sapso,https://wetter.com/timor-leste/sapso/TL1943747.html,-8.7433,125.3108,Asia/Dili,
sosoana,https://wetter.com/timor-leste/sosoana/TL1943637.html,-8.9531,125.1089,Asia/Dili,
bislau,https://wetter.com/timor-leste/bislau/TL1943181.html,-8.6436,125.5932,Asia/Dili,
laulara,https://wetter.com/timor-leste/laulara/TL1638307.html,-8.6031,125.5939,Asia/Dili,
saboria,https://wetter.com/timor-leste/saboria/TL1943149.html,-8.7158,125.5888,Asia/Dili,
metinaro,https://wetter.com/timor-leste/metinaro/ID1635288.html,-8.5301,125.7416,Asia/Dili,
manumeta-rahun,https://wetter.com/timor-leste/manumeta-rahun/TL1942435.html,-8.5669,125.5678,Asia/Dili,
masau,https://wetter.com/timor-leste/masau/TL1942506.html,-8.5561,125.6008,Asia/Dili,
markoni,https://wetter.com/timor-leste/markoni/TL1942414.html,-8.5511,125.5512,Asia/Dili,
lesibutak,https://wetter.com/timor-leste/lesibutak/TL1942441.html,-8.5769,125.5336,Asia/Dili,
mataruak,https://wetter.com/timor-leste/mataruak/TL1942413.html,-8.5469,125.5517,Asia/Dili,
motakik,https://wetter.com/timor-leste/motakik/TL1942684.html,-8.5519,125.6608,Asia/Dili,
marabia,https://wetter.com/timor-leste/marabia/TL1942446.html,-8.569,125.5876,Asia/Dili,
manluana,https://wetter.com/timor-leste/manluana/TL1942405.html,-8.5578,125.5286,Asia/Dili,
motaulun-barat,https://wetter.com/timor-leste/motaulun-barat/TL1942448.html,-8.5736,125.5914,Asia/Dili,
lepos,https://wetter.com/timor-leste/lepos/TL1942708.html,-8.5414,125.6869,Asia/Dili,
pala,https://wetter.com/timor-leste/pala/TL1944143.html,-8.1836,125.6286,Asia/Dili,
quintal-arbiro,https://wetter.com/timor-leste/quintal-arbiro/TL1942443.html,-8.5671,125.5858,Asia/Dili,
dilor,https://wetter.com/timor-leste/dilor/TL1942853.html,-8.8378,126.2125,Asia/Dili,
belulik-kraik,https://wetter.com/timor-leste/belulik-kraik/TL1943959.html,-9.2211,125.0208,Asia/Dili,
vila,https://wetter.com/timor-leste/vila/TL1944140.html,-8.2639,125.6011,Asia/Dili,
loegolo,https://wetter.com/timor-leste/loegolo/TL1945295.html,-9.1178,125.4189,Asia/Dili,
beimau,https://wetter.com/timor-leste/beimau/TL1937244.html,-9.3473,125.2796,Asia/Dili,
taibesi,https://wetter.com/timor-leste/taibesi/TL1942447.html,-8.5682,125.5923,Asia/Dili,
mape,https://wetter.com/timor-leste/mape/ID1636215.html,-9.0667,125.4167,Asia/Dili,
dais,https://wetter.com/timor-leste/dais/TL1937086.html,-9.2812,125.3159,Asia/Dili,
mape,https://wetter.com/timor-leste/mape/TL1945326.html,-9.155,125.4536,Asia/Dili,
priramatan,https://wetter.com/timor-leste/priramatan/TL1944927.html,-8.5306,125.7511,Asia/Dili,
oekiar,https://wetter.com/timor-leste/oekiar/TL1943727.html,-8.7567,125.1869,Asia/Dili,
kuluhum-taibesi-atas,https://wetter.com/timor-leste/kuluhum-taibesi-atas/TL1942468.html,-8.5614,125.5933,Asia/Dili,
maker,https://wetter.com/timor-leste/maker/TL1944137.html,-8.2503,125.5133,Asia/Dili,
atauro,https://wetter.com/timor-leste/atauro/ID1635814.html,-8.2667,125.6014,Asia/Dili,
malere,https://wetter.com/timor-leste/malere/TL1943144.html,-8.7301,125.5659,Asia/Dili,
bedois,https://wetter.com/timor-leste/bedois/TL1942502.html,-8.5675,125.6217,Asia/Dili,
bedois,https://wetter.com/timor-leste/bedois/TL1942656.html,-8.5657,125.6247,Asia/Dili,
aimutin-laran,https://wetter.com/timor-leste/aimutin-laran/TL1942408.html,-8.5613,125.5439,Asia/Dili,
airport,https://wetter.com/timor-leste/airport/TL1944147.html,-8.2439,125.6031,Asia/Dili,
atekru,https://wetter.com/timor-leste/atekru/TL1944148.html,-8.2231,125.5347,Asia/Dili,
raifusu,https://wetter.com/timor-leste/raifusu/TL1945075.html,-8.7633,125.5692,Asia/Dili,
adara,https://wetter.com/timor-leste/adara/TL1944150.html,-8.1964,125.5647,Asia/Dili,
roruli,https://wetter.com/timor-leste/roruli/TL1943135.html,-8.6317,125.739,Asia/Dili,
fatumeta,https://wetter.com/timor-leste/fatumeta/TL1942424.html,-8.5637,125.5517,Asia/Dili,
bemori-sentral,https://wetter.com/timor-leste/bemori-sentral/TL1942471.html,-8.5589,125.5858,Asia/Dili,
beto-barat,https://wetter.com/timor-leste/beto-barat/TL1942403.html,-8.5508,125.5236,Asia/Dili,
bekosi-bawah,https://wetter.com/timor-leste/bekosi-bawah/TL1942469.html,-8.5633,125.599,Asia/Dili,
koreo,https://wetter.com/timor-leste/koreo/TL1942510.html,-8.5786,125.5817,Asia/Dili,
aimutin-1,https://wetter.com/timor-leste/aimutin-1/TL1942409.html,-8.5553,125.5467,Asia/Dili,
borohun,https://wetter.com/timor-leste/borohun/TL1942432.html,-8.5603,125.5778,Asia/Dili,
hera,https://wetter.com/timor-leste/hera/TL1643345.html,-8.5385,125.686,Asia/Dili,
ritutu,https://wetter.com/timor-leste/ritutu/TL1943121.html,-8.6669,125.6372,Asia/Dili,
dili,https://wetter.com/timor-leste/dili/TL1645457.html,-8.5586,125.5736,Asia/Dili,
dare,https://wetter.com/timor-leste/dare/TL1943194.html,-8.5927,125.571,Asia/Dili,
beto-timur,https://wetter.com/timor-leste/beto-timur/TL1942400.html,-8.5506,125.532,Asia/Dili,
bidau,https://wetter.com/timor-leste/bidau/ID1648802.html,-8.5667,125.6,Asia/Dili,
manonia,https://wetter.com/timor-leste/manonia/TL1944700.html,-8.9875,125.3858,Asia/Dili,
borhei,https://wetter.com/timor-leste/borhei/TL1944624.html,-8.7608,125.4289,Asia/Dili,
qima,https://wetter.com/timor-leste/qima/TL1943376.html,-8.9017,124.9992,Asia/Dili,
tukarocoiloco,https://wetter.com/timor-leste/tukarocoiloco/TL1944810.html,-8.9453,125.5225,Asia/Dili,
bahalale,https://wetter.com/timor-leste/bahalale/TL1942339.html,-8.5633,126.3344,Asia/Dili,
bahatata,https://wetter.com/timor-leste/bahatata/TL1943300.html,-8.6381,126.6397,Asia/Dili,
bahamori,https://wetter.com/timor-leste/bahamori/TL1943543.html,-8.5092,126.2281,Asia/Dili,
baucau,https://wetter.com/timor-leste/baucau/TL1649539.html,-8.4757,126.4563,Asia/Dili,
bibidae,https://wetter.com/timor-leste/bibidae/TL1943502.html,-8.6561,126.7272,Asia/Dili,
kasmutu,https://wetter.com/timor-leste/kasmutu/TL1942568.html,-8.4583,126.4698,Asia/Dili,
makadai,https://wetter.com/timor-leste/makadai/TL1942574.html,-8.4612,126.4541,Asia/Dili,
dirgantara,https://wetter.com/timor-leste/dirgantara/TL1942489.html,-8.492,126.3691,Asia/Dili,
haunau,https://wetter.com/timor-leste/haunau/TL1942342.html,-8.5406,126.335,Asia/Dili,
lese,https://wetter.com/timor-leste/lese/TL1945397.html,-9.1357,125.5697,Asia/Dili,
maukale,https://wetter.com/timor-leste/maukale/TL1942949.html,-8.5567,126.4144,Asia/Dili,
daemenama,https://wetter.com/timor-leste/daemenama/TL1943529.html,-8.6597,126.5175,Asia/Dili,
butileo,https://wetter.com/timor-leste/butileo/TL1942880.html,-8.5961,126.5561,Asia/Dili,
lavadae,https://wetter.com/timor-leste/lavadae/TL1946057.html,-8.5469,126.7017,Asia/Dili,
macadai-bawah,https://wetter.com/timor-leste/macadai-bawah/TL1942482.html,-8.4877,126.3334,Asia/Dili,
tinlolo,https://wetter.com/timor-leste/tinlolo/TL1944223.html,-8.4996,126.657,Asia/Dili,
seisal-baru,https://wetter.com/timor-leste/seisal-baru/TL1942676.html,-8.4779,126.5441,Asia/Dili,
taubere,https://wetter.com/timor-leste/taubere/TL1946114.html,-8.5903,126.6694,Asia/Dili,
lulibau,https://wetter.com/timor-leste/lulibau/TL1943215.html,-8.6739,126.4339,Asia/Dili,
vemasse,https://wetter.com/timor-leste/vemasse/ID1622481.html,-8.5106,126.2106,Asia/Dili,
ossoluga,https://wetter.com/timor-leste/ossoluga/TL1942969.html,-8.5261,126.4656,Asia/Dili,
naafa,https://wetter.com/timor-leste/naafa/TL1946051.html,-8.5336,126.7103,Asia/Dili,
visto,https://wetter.com/timor-leste/visto/TL1942966.html,-8.5161,126.4736,Asia/Dili,
raibere,https://wetter.com/timor-leste/raibere/TL1936942.html,-9.0659,125.5664,Asia/Dili,
hahitali,https://wetter.com/timor-leste/hahitali/TL1945618.html,-8.8625,125.6597,Asia/Dili,
beko,https://wetter.com/timor-leste/beko/TL1944958.html,-9.1019,125.6833,Asia/Dili,
berluli,https://wetter.com/timor-leste/berluli/TL1944547.html,-8.9858,125.5183,Asia/Dili,
beikala,https://wetter.com/timor-leste/beikala/TL1944954.html,-9.1094,125.6647,Asia/Dili,
hatobuilico,https://wetter.com/timor-leste/hatobuilico/TL1944906.html,-8.8936,125.5186,Asia/Dili,
bobe,https://wetter.com/timor-leste/bobe/TL1945502.html,-9.1556,125.6642,Asia/Dili,
ausur,https://wetter.com/timor-leste/ausur/TL1945399.html,-9.1283,125.5811,Asia/Dili,
maulore,https://wetter.com/timor-leste/maulore/TL1944717.html,-8.9944,125.4997,Asia/Dili,
bemoris,https://wetter.com/timor-leste/bemoris/TL1945392.html,-9.1339,125.5456,Asia/Dili,
kaulala,https://wetter.com/timor-leste/kaulala/TL1944796.html,-8.8353,125.5881,Asia/Dili,
kaisera,https://wetter.com/timor-leste/kaisera/TL1944961.html,-9.0967,125.6864,Asia/Dili,
karlele,https://wetter.com/timor-leste/karlele/TL1945511.html,-9.0219,125.5297,Asia/Dili,
hahimau,https://wetter.com/timor-leste/hahimau/TL1945630.html,-8.8439,125.6483,Asia/Dili,
ainaro,https://wetter.com/timor-leste/ainaro/TL1651810.html,-8.9924,125.5082,Asia/Dili,
nonuboka,https://wetter.com/timor-leste/nonuboka/TL1945402.html,-9.1333,125.5967,Asia/Dili,
munobol,https://wetter.com/timor-leste/munobol/TL1936885.html,-9.1317,125.5394,Asia/Dili,
monocati,https://wetter.com/timor-leste/monocati/TL1944877.html,-8.9192,125.5269,Asia/Dili,
maubisse,https://wetter.com/timor-leste/maubisse/TL1635823.html,-8.8381,125.5972,Asia/Dili,
anaulu,https://wetter.com/timor-leste/anaulu/TL1942547.html,-8.4625,126.4487,Asia/Dili,
lientuto,https://wetter.com/timor-leste/lientuto/TL1944910.html,-8.885,125.6061,Asia/Dili,
poelau,https://wetter.com/timor-leste/poelau/TL1944545.html,-8.9969,125.5181,Asia/Dili,
kaitara,https://wetter.com/timor-leste/kaitara/TL1945018.html,-8.8125,125.6186,Asia/Dili,
alala,https://wetter.com/timor-leste/alala/TL1942959.html,-8.5144,126.4389,Asia/Dili,
mantilu,https://wetter.com/timor-leste/mantilu/TL1944558.html,-8.9589,125.5214,Asia/Dili,
baulela,https://wetter.com/timor-leste/baulela/TL1944017.html,-9.2914,125.2314,Asia/Dili,
ostico,https://wetter.com/timor-leste/ostico/TL1942347.html,-8.5331,126.3339,Asia/Dili,
selegoa,https://wetter.com/timor-leste/selegoa/TL1946068.html,-8.5194,126.6908,Asia/Dili,
dirumdesan,https://wetter.com/timor-leste/dirumdesan/TL1943908.html,-8.9808,125.2211,Asia/Dili,
haliren,https://wetter.com/timor-leste/haliren/TL1943377.html,-8.9939,125.0061,Asia/Dili,
harare,https://wetter.com/timor-leste/harare/TL1945249.html,-9.0106,125.3294,Asia/Dili,
helikei,https://wetter.com/timor-leste/helikei/TL1945174.html,-9.0709,125.363,Asia/Dili,
malete,https://wetter.com/timor-leste/malete/TL1943869.html,-8.7889,125.1928,Asia/Dili,
kakamata,https://wetter.com/timor-leste/kakamata/TL1943730.html,-8.7711,125.2011,Asia/Dili,
harema,https://wetter.com/timor-leste/harema/TL1943897.html,-8.8872,125.2283,Asia/Dili,
palaka,https://wetter.com/timor-leste/palaka/TL1943660.html,-8.8953,125.0044,Asia/Dili,
limanaro,https://wetter.com/timor-leste/limanaro/TL1943876.html,-8.7931,125.1456,Asia/Dili,
megir,https://wetter.com/timor-leste/megir/TL1943997.html,-8.8678,125.0436,Asia/Dili,
gerotete,https://wetter.com/timor-leste/gerotete/TL1944932.html,-8.8842,125.2644,Asia/Dili,
kulumba,https://wetter.com/timor-leste/kulumba/TL1945210.html,-9.0411,125.3383,Asia/Dili,
lolo-toi,https://wetter.com/timor-leste/lolo-toi/ID1637384.html,-9.1667,125.3,Asia/Dili,
maliana,https://wetter.com/timor-leste/maliana/TL1636670.html,-8.9917,125.2197,Asia/Dili,
oelaka,https://wetter.com/timor-leste/oelaka/TL1945573.html,-9.1652,125.2674,Asia/Dili,
nuren,https://wetter.com/timor-leste/nuren/TL1943968.html,-9.0197,125.0611,Asia/Dili,
uat,https://wetter.com/timor-leste/uat/TL1944807.html,-8.9953,125.3125,Asia/Dili,
poetete,https://wetter.com/timor-leste/poetete/ID1651105.html,-8.7992,125.1711,Asia/Dili,
tesigele,https://wetter.com/timor-leste/tesigele/TL1945584.html,-9.1406,125.2925,Asia/Dili,
arle,https://wetter.com/timor-leste/arle/TL1943753.html,-8.7294,125.3406,Asia/Dili,
ozo,https://wetter.com/timor-leste/ozo/TL1943949.html,-9.1172,125.2411,Asia/Dili,
batumigi,https://wetter.com/timor-leste/batumigi/TL1944743.html,-8.9156,125.3881,Asia/Dili,
melemaga,https://wetter.com/timor-leste/melemaga/TL1944916.html,-8.9181,125.2722,Asia/Dili,
saebere,https://wetter.com/timor-leste/saebere/TL1942692.html,-8.4833,126.5644,Asia/Dili,
atus,https://wetter.com/timor-leste/atus/TL1943946.html,-9.0975,125.1914,Asia/Dili,
bereleu,https://wetter.com/timor-leste/bereleu/TL1943900.html,-8.9189,125.2311,Asia/Dili,
rabei,https://wetter.com/timor-leste/rabei/TL1942597.html,-8.4896,126.4721,Asia/Dili,
nunudoco,https://wetter.com/timor-leste/nunudoco/TL1942935.html,-8.5819,126.39,Asia/Dili,
defadae,https://wetter.com/timor-leste/defadae/TL1942794.html,-8.5833,126.5228,Asia/Dili,
waidau,https://wetter.com/timor-leste/waidau/TL1942333.html,-8.5725,126.3394,Asia/Dili,
umarama,https://wetter.com/timor-leste/umarama/TL1942685.html,-8.4827,126.5505,Asia/Dili,
uaiae,https://wetter.com/timor-leste/uaiae/TL1943216.html,-8.6717,126.4236,Asia/Dili,
wabere,https://wetter.com/timor-leste/wabere/TL1942883.html,-8.5697,126.5747,Asia/Dili,
lasula,https://wetter.com/timor-leste/lasula/TL1946066.html,-8.5189,126.6933,Asia/Dili,
aimia,https://wetter.com/timor-leste/aimia/TL1943722.html,-8.7978,125.2436,Asia/Dili,
aikau,https://wetter.com/timor-leste/aikau/TL1943652.html,-8.8833,125.1167,Asia/Dili,
goulete,https://wetter.com/timor-leste/goulete/TL1943874.html,-8.8086,125.1458,Asia/Dili,
sirimana,https://wetter.com/timor-leste/sirimana/TL1946101.html,-8.5639,126.7156,Asia/Dili,
venilale,https://wetter.com/timor-leste/venilale/TL1943235.html,-8.6431,126.3783,Asia/Dili,
uluisi,https://wetter.com/timor-leste/uluisi/TL1943522.html,-8.6389,126.5325,Asia/Dili,
saelari,https://wetter.com/timor-leste/saelari/TL1944467.html,-8.485,126.6993,Asia/Dili,
ames,https://wetter.com/timor-leste/ames/TL1945577.html,-9.1592,125.2797,Asia/Dili,
arlaeben,https://wetter.com/timor-leste/arlaeben/TL1943887.html,-8.8911,125.1625,Asia/Dili,
buloi,https://wetter.com/timor-leste/buloi/TL1943694.html,-8.8597,125.1867,Asia/Dili,
biacau,https://wetter.com/timor-leste/biacau/TL1944003.html,-8.8336,125.0572,Asia/Dili,
auba,https://wetter.com/timor-leste/auba/TL1651067.html,-9.0333,125.3667,Asia/Dili,
enelaran,https://wetter.com/timor-leste/enelaran/TL1944005.html,-8.8275,125.0661,Asia/Dili,
bugas,https://wetter.com/timor-leste/bugas/TL1945245.html,-9.0156,125.3722,Asia/Dili,
riadac,https://wetter.com/timor-leste/riadac/TL1944459.html,-8.487,126.689,Asia/Dili,
akarlaran,https://wetter.com/timor-leste/akarlaran/TL1943978.html,-9.3503,125.2461,Asia/Dili,
pantaikelapa,https://wetter.com/timor-leste/pantaikelapa/TL1942401.html,-8.5494,125.5408,Asia/Dili,
holgeda,https://wetter.com/timor-leste/holgeda/TL1945275.html,-9.1895,125.4282,Asia/Dili,
kulidasi,https://wetter.com/timor-leste/kulidasi/TL1945527.html,-9.025,125.5978,Asia/Dili,
lacluan,https://wetter.com/timor-leste/lacluan/TL1945535.html,-9.0706,125.9175,Asia/Dili,
teras,https://wetter.com/timor-leste/teras/TL1944627.html,-8.8281,125.9206,Asia/Dili,
russu,https://wetter.com/timor-leste/russu/TL1945155.html,-8.9369,125.6769,Asia/Dili,
raiubu,https://wetter.com/timor-leste/raiubu/TL1945083.html,-8.9917,125.6564,Asia/Dili,
same,https://wetter.com/timor-leste/same/ID1628926.html,-9.0042,125.6486,Asia/Dili,
sarin,https://wetter.com/timor-leste/sarin/TL1944529.html,-8.9853,125.78,Asia/Dili,
turiscai,https://wetter.com/timor-leste/turiscai/TL1622946.html,-8.8228,125.7075,Asia/Dili,
toileru,https://wetter.com/timor-leste/toileru/TL1945635.html,-8.8311,125.6967,Asia/Dili,
turon,https://wetter.com/timor-leste/turon/TL1944986.html,-9.0364,125.6631,Asia/Dili,
orsenaco,https://wetter.com/timor-leste/orsenaco/TL1945177.html,-8.8769,125.6975,Asia/Dili,
uebicas,https://wetter.com/timor-leste/uebicas/TL1945215.html,-9.0153,126.0061,Asia/Dili,
bonak,https://wetter.com/timor-leste/bonak/TL1944213.html,-9.2893,124.169,Asia/Dili,
fofe,https://wetter.com/timor-leste/fofe/TL1944448.html,-9.4678,124.3308,Asia/Dili,
bokon,https://wetter.com/timor-leste/bokon/TL1944056.html,-9.2392,124.2252,Asia/Dili,
oebu,https://wetter.com/timor-leste/oebu/TL1944457.html,-9.4644,124.3172,Asia/Dili,
baoknana,https://wetter.com/timor-leste/baoknana/TL1944211.html,-9.3073,124.1316,Asia/Dili,
fauteso,https://wetter.com/timor-leste/fauteso/TL1944455.html,-9.46,124.3267,Asia/Dili,
oamna,https://wetter.com/timor-leste/oamna/TL1944206.html,-9.35,124.2133,Asia/Dili,
binau,https://wetter.com/timor-leste/binau/TL1944502.html,-9.4111,124.3558,Asia/Dili,
huaen,https://wetter.com/timor-leste/huaen/TL1944460.html,-9.4575,124.3397,Asia/Dili,
nemun,https://wetter.com/timor-leste/nemun/TL1944380.html,-9.3064,124.2747,Asia/Dili,
fuabana,https://wetter.com/timor-leste/fuabana/TL1944053.html,-9.2454,124.2084,Asia/Dili,
najaimuti,https://wetter.com/timor-leste/najaimuti/ID1944407.html,-9.2872,124.3653,Asia/Dili,
ranac,https://wetter.com/timor-leste/ranac/TL1942850.html,-8.9728,126.0611,Asia/Dili,
webani,https://wetter.com/timor-leste/webani/TL1943636.html,-8.8478,126.0639,Asia/Dili,
fatu-maquerec,https://wetter.com/timor-leste/fatu-maquerec/ID1644795.html,-8.7667,125.7833,Asia/Dili,
umasau,https://wetter.com/timor-leste/umasau/TL1943302.html,-8.5119,126.0236,Asia/Dili,
delubo,https://wetter.com/timor-leste/delubo/TL1945623.html,-8.8583,125.7178,Asia/Dili,
lehutula,https://wetter.com/timor-leste/lehutula/TL1944622.html,-8.8575,125.9425,Asia/Dili,
raibua,https://wetter.com/timor-leste/raibua/TL1943474.html,-8.605,126.1447,Asia/Dili,
deunai,https://wetter.com/timor-leste/deunai/TL1945164.html,-8.9067,125.6619,Asia/Dili,
maloroc,https://wetter.com/timor-leste/maloroc/TL1944935.html,-8.5844,125.8653,Asia/Dili,
lawado,https://wetter.com/timor-leste/lawado/TL1944646.html,-8.7506,125.9047,Asia/Dili,
camedar,https://wetter.com/timor-leste/camedar/TL1942849.html,-8.9717,126.0589,Asia/Dili,
matai,https://wetter.com/timor-leste/matai/TL1945605.html,-9.2989,125.265,Asia/Dili,
pualaca,https://wetter.com/timor-leste/pualaca/ID1630611.html,-8.8167,125.95,Asia/Dili,
manatutu,https://wetter.com/timor-leste/manatutu/TL1636526.html,-8.5114,126.0131,Asia/Dili,
maubisse,https://wetter.com/timor-leste/maubisse/TL1635225.html,-8.8939,125.7044,Asia/Dili,
akadiruhun,https://wetter.com/timor-leste/akadiruhun/TL1945009.html,-9.0133,125.6553,Asia/Dili,
manico,https://wetter.com/timor-leste/manico/TL1937028.html,-9.0017,125.64,Asia/Dili,
ralan,https://wetter.com/timor-leste/ralan/TL1943494.html,-8.5389,126.1647,Asia/Dili,
kicras,https://wetter.com/timor-leste/kicras/TL1640059.html,-9.0667,126.0167,Asia/Dili,
lalica,https://wetter.com/timor-leste/lalica/TL1945497.html,-9.15,125.7069,Asia/Dili,
leodato,https://wetter.com/timor-leste/leodato/TL1944492.html,-8.9858,125.7792,Asia/Dili,
manico,https://wetter.com/timor-leste/manico/TL1945033.html,-9.0003,125.6461,Asia/Dili,
batas,https://wetter.com/timor-leste/batas/TL1945156.html,-8.9372,125.7056,Asia/Dili,
lei,https://wetter.com/timor-leste/lei/TL1944674.html,-8.7558,125.9611,Asia/Dili,
larmera,https://wetter.com/timor-leste/larmera/TL1944857.html,-8.7233,125.9775,Asia/Dili,
betano,https://wetter.com/timor-leste/betano/TL1648907.html,-9.1659,125.7235,Asia/Dili,
kuba,https://wetter.com/timor-leste/kuba/TL1944519.html,-9.3792,124.2686,Asia/Dili,
oelbabai,https://wetter.com/timor-leste/oelbabai/TL1944202.html,-9.3586,124.2367,Asia/Dili,
caiualita,https://wetter.com/timor-leste/caiualita/TL1943315.html,-8.6567,126.6286,Asia/Dili,
kapuas,https://wetter.com/timor-leste/kapuas/TL1943813.html,-8.7586,126.6586,Asia/Dili,
caiua,https://wetter.com/timor-leste/caiua/TL1942863.html,-8.8408,126.2114,Asia/Dili,
iramer,https://wetter.com/timor-leste/iramer/TL1943831.html,-8.9311,126.2569,Asia/Dili,
uelaku,https://wetter.com/timor-leste/uelaku/TL1943826.html,-8.9153,126.2792,Asia/Dili,
munidailo,https://wetter.com/timor-leste/munidailo/TL1943225.html,-8.6483,126.4828,Asia/Dili,
raila,https://wetter.com/timor-leste/raila/TL1943210.html,-8.7033,126.4803,Asia/Dili,
denihare,https://wetter.com/timor-leste/denihare/TL1943480.html,-8.6769,126.6986,Asia/Dili,
makadiki,https://wetter.com/timor-leste/makadiki/TL1943243.html,-8.8492,126.5133,Asia/Dili,
loiulo,https://wetter.com/timor-leste/loiulo/TL1943341.html,-8.6783,126.6997,Asia/Dili,
uthautfoo,https://wetter.com/timor-leste/uthautfoo/TL1944214.html,-9.2833,124.1722,Asia/Dili,
santontonio,https://wetter.com/timor-leste/santontonio/TL1942860.html,-8.8394,126.205,Asia/Dili,
sogau,https://wetter.com/timor-leste/sogau/TL1943226.html,-8.6453,126.4844,Asia/Dili,
valverde,https://wetter.com/timor-leste/valverde/TL1622500.html,-9.2833,124.3333,Asia/Dili,
ueabae,https://wetter.com/timor-leste/ueabae/TL1943833.html,-8.9625,126.2694,Asia/Dili,
viqueque,https://wetter.com/timor-leste/viqueque/TL1622471.html,-8.8575,126.3647,Asia/Dili,
momomento,https://wetter.com/timor-leste/momomento/TL1943670.html,-8.9278,126.4025,Asia/Dili,
maroman,https://wetter.com/timor-leste/maroman/TL1943819.html,-8.8811,126.3686,Asia/Dili,
umaquic,https://wetter.com/timor-leste/umaquic/TL1943248.html,-8.8147,126.5269,Asia/Dili,
comaoli,https://wetter.com/timor-leste/comaoli/TL1943841.html,-8.7564,126.68,Asia/Dili,
raihun,https://wetter.com/timor-leste/raihun/TL1943817.html,-8.8789,126.3692,Asia/Dili,
canlor,https://wetter.com/timor-leste/canlor/TL1943828.html,-8.93,126.2567,Asia/Dili,
boruc,https://wetter.com/timor-leste/boruc/TL1942856.html,-8.8381,126.2089,Asia/Dili,
oelete,https://wetter.com/timor-leste/oelete/TL1944456.html,-9.4622,124.3242,Asia/Dili,
ossu,https://wetter.com/timor-leste/ossu/ID1633534.html,-8.7378,126.3731,Asia/Dili,
caiuaihoo,https://wetter.com/timor-leste/caiuaihoo/TL1943182.html,-8.7217,126.3672,Asia/Dili,
mopo,https://wetter.com/timor-leste/mopo/TL1944075.html,-9.1794,124.4697,Asia/Dili,
buneu,https://wetter.com/timor-leste/buneu/TL1944058.html,-9.2447,124.4054,Asia/Dili,
palink,https://wetter.com/timor-leste/palink/TL1944431.html,-9.2531,124.3483,Asia/Dili,
oepauk,https://wetter.com/timor-leste/oepauk/TL1944339.html,-9.3694,124.325,Asia/Dili,
nunsena,https://wetter.com/timor-leste/nunsena/TL1944280.html,-9.3083,124.4264,Asia/Dili,
kolam-cina,https://wetter.com/timor-leste/kolam-cina/TL1944104.html,-9.2042,124.3147,Asia/Dili,
oelnanoe,https://wetter.com/timor-leste/oelnanoe/TL1944054.html,-9.2449,124.2163,Asia/Dili,
citrana,https://wetter.com/timor-leste/citrana/TL1639958.html,-9.3291,124.0919,Asia/Dili,
oelila,https://wetter.com/timor-leste/oelila/TL1944094.html,-9.2497,124.3514,Asia/Dili,
roti,https://wetter.com/timor-leste/roti/TL1944090.html,-9.245,124.3158,Asia/Dili,
soin,https://wetter.com/timor-leste/soin/TL1944070.html,-9.175,124.4117,Asia/Dili,
padiae,https://wetter.com/timor-leste/padiae/TL1944096.html,-9.2464,124.3461,Asia/Dili,
oelangkai,https://wetter.com/timor-leste/oelangkai/TL1944534.html,-9.44,124.3208,Asia/Dili,
oemolo,https://wetter.com/timor-leste/oemolo/TL1944091.html,-9.2272,124.3114,Asia/Dili,
menoah,https://wetter.com/timor-leste/menoah/TL1944425.html,-9.2608,124.3508,Asia/Dili,
biele,https://wetter.com/timor-leste/biele/TL1944252.html,-9.3375,124.3811,Asia/Dili,
oelole,https://wetter.com/timor-leste/oelole/TL1944413.html,-9.2828,124.3653,Asia/Dili,
pante-makasar,https://wetter.com/timor-leste/pante-makasar/TL1632533.html,-9.2,124.3833,Asia/Dili,
passabe,https://wetter.com/timor-leste/passabe/TL1632038.html,-9.4642,124.3433,Asia/Dili,
pune,https://wetter.com/timor-leste/pune/TL1944337.html,-9.3694,124.3172,Asia/Dili,
sabela,https://wetter.com/timor-leste/sabela/TL1944420.html,-9.2608,124.3303,Asia/Dili,
santacrus,https://wetter.com/timor-leste/santacrus/TL1944060.html,-9.2008,124.3783,Asia/Dili,
palaban,https://wetter.com/timor-leste/palaban/TL1944169.html,-9.2033,124.3452,Asia/Dili,
licore,https://wetter.com/timor-leste/licore/TL1946706.html,-8.5728,125.9261,Asia/Dili,
lakenu,https://wetter.com/timor-leste/lakenu/TL1944628.html,-8.8089,125.9194,Asia/Dili,
kera,https://wetter.com/timor-leste/kera/TL1946805.html,-8.5578,125.8603,Asia/Dili,
iraono,https://wetter.com/timor-leste/iraono/TL1942973.html,-8.3661,127.0347,Asia/Dili,
luro,https://wetter.com/timor-leste/luro/TL1945361.html,-8.5433,126.8331,Asia/Dili,
chailoro,https://wetter.com/timor-leste/chailoro/TL1942991.html,-8.3978,127.2492,Asia/Dili,
baduro,https://wetter.com/timor-leste/baduro/TL1942828.html,-8.4544,126.8889,Asia/Dili,
lereira,https://wetter.com/timor-leste/lereira/TL1942820.html,-8.4681,126.8833,Asia/Dili,
codo,https://wetter.com/timor-leste/codo/TL1942824.html,-8.4669,126.8819,Asia/Dili,
com,https://wetter.com/timor-leste/com/TL1942982.html,-8.3561,127.0511,Asia/Dili,
beru,https://wetter.com/timor-leste/beru/TL1891884.html,-8.4708,127.2458,Asia/Dili,
paihara,https://wetter.com/timor-leste/paihara/TL1942834.html,-8.4006,126.91,Asia/Dili,
home,https://wetter.com/timor-leste/home/TL1942804.html,-8.4992,126.9653,Asia/Dili,
lospalos,https://wetter.com/timor-leste/lospalos/TL1937274.html,-8.5217,126.9983,Asia/Dili,
raca,https://wetter.com/timor-leste/raca/TL1942831.html,-8.4367,126.9786,Asia/Dili,
ilimano,https://wetter.com/timor-leste/ilimano/TL1944536.html,-8.4764,125.8569,Asia/Dili,
paio,https://wetter.com/timor-leste/paio/TL1945281.html,-8.5853,127.1,Asia/Dili,
tamaro,https://wetter.com/timor-leste/tamaro/TL1942843.html,-8.3742,126.8869,Asia/Dili,
lauro,https://wetter.com/timor-leste/lauro/TL1945430.html,-8.5231,126.9522,Asia/Dili,
pehefito,https://wetter.com/timor-leste/pehefito/TL1945342.html,-8.5147,127.1,Asia/Dili,
butinafa,https://wetter.com/timor-leste/butinafa/TL1945188.html,-8.6961,126.8256,Asia/Dili,
serenica,https://wetter.com/timor-leste/serenica/TL1945476.html,-8.3464,126.9444,Asia/Dili,
petileti,https://wetter.com/timor-leste/petileti/TL1942974.html,-8.3658,127.0394,Asia/Dili,
maina,https://wetter.com/timor-leste/maina/TL1942838.html,-8.3972,126.9106,Asia/Dili,
somoco,https://wetter.com/timor-leste/somoco/TL1943002.html,-8.4253,127.0817,Asia/Dili,
poros,https://wetter.com/timor-leste/poros/TL1943003.html,-8.4203,127.1114,Asia/Dili,
trisula,https://wetter.com/timor-leste/trisula/TL1942997.html,-8.4408,127.0014,Asia/Dili,
gunung-dilarini,https://wetter.com/timor-leste/gunung-dilarini/TL1945349.html,-8.6019,126.8206,Asia/Dili,
aelaneno,https://wetter.com/timor-leste/aelaneno/TL1945362.html,-8.5436,126.8347,Asia/Dili,
teda,https://wetter.com/timor-leste/teda/TL1945591.html,-9.1392,125.3406,Asia/Dili,
leonti,https://wetter.com/timor-leste/leonti/TL1945285.html,-9.179,125.4762,Asia/Dili,
baer,https://wetter.com/timor-leste/baer/TL1944172.html,-9.3077,125.092,Asia/Dili,
oeulitai,https://wetter.com/timor-leste/oeulitai/TL1945388.html,-9.1889,125.51,Asia/Dili,
sou,https://wetter.com/timor-leste/sou/TL1944027.html,-9.2608,125.145,Asia/Dili,
klobor,https://wetter.com/timor-leste/klobor/TL1944191.html,-9.2521,125.0983,Asia/Dili,
vatuu,https://wetter.com/timor-leste/vatuu/TL1944154.html,-8.1431,125.6106,Asia/Dili,
holba,https://wetter.com/timor-leste/holba/TL1945616.html,-9.2661,125.3261,Asia/Dili,
maior,https://wetter.com/timor-leste/maior/TL1945606.html,-9.2978,125.2569,Asia/Dili,
halimea,https://wetter.com/timor-leste/halimea/TL1944166.html,-9.3422,125.1119,Asia/Dili,
comilara,https://wetter.com/timor-leste/comilara/TL1945458.html,-8.5558,126.93,Asia/Dili,
tobolo,https://wetter.com/timor-leste/tobolo/TL1943977.html,-9.353,125.1833,Asia/Dili,
tobur,https://wetter.com/timor-leste/tobur/TL1945590.html,-9.1399,125.3225,Asia/Dili,
sosiodade,https://wetter.com/timor-leste/sosiodade/TL11765557.html,-8.5555,125.5719,Asia/Dili,
suai,https://wetter.com/timor-leste/suai/TL1626459.html,-9.3129,125.2565,Asia/Dili,
loo,https://wetter.com/timor-leste/loo/TL1945565.html,-9.3478,125.2775,Asia/Dili,
ranok,https://wetter.com/timor-leste/ranok/TL1937098.html,-9.3067,125.2529,Asia/Dili,
umaklaran,https://wetter.com/timor-leste/umaklaran/TL1945265.html,-9.2136,125.4614,Asia/Dili,
loro,https://wetter.com/timor-leste/loro/TL1945267.html,-9.2101,125.4586,Asia/Dili,
zobete,https://wetter.com/timor-leste/zobete/TL1945291.html,-9.1641,125.4492,Asia/Dili,
zumalai,https://wetter.com/timor-leste/zumalai/TL1945301.html,-9.1575,125.4506,Asia/Dili,
wemer,https://wetter.com/timor-leste/wemer/TL1944026.html,-9.2659,125.1748,Asia/Dili,
aitos,https://wetter.com/timor-leste/aitos/TL1944177.html,-9.2878,125.0669,Asia/Dili,
parlamento,https://wetter.com/timor-leste/parlamento/TL1945474.html,-8.3592,126.9308,Asia/Dili,
nova-ancora,https://wetter.com/timor-leste/nova-ancora/ID1633864.html,-8.4333,126.75,Asia/Dili,
mata,https://wetter.com/timor-leste/mata/TL1942980.html,-8.3558,127.06,Asia/Dili,
nartutu,https://wetter.com/timor-leste/nartutu/TL1943457.html,-8.5894,125.3436,Asia/Dili,
manacolohata,https://wetter.com/timor-leste/manacolohata/TL1943581.html,-8.6342,125.3342,Asia/Dili,
tautalo,https://wetter.com/timor-leste/tautalo/TL1943580.html,-8.6392,125.3089,Asia/Dili,
vavikinia,https://wetter.com/timor-leste/vavikinia/TL1939878.html,-8.6139,125.2072,Asia/Dili,
vawinana,https://wetter.com/timor-leste/vawinana/TL1943436.html,-8.6606,125.1311,Asia/Dili,
morai,https://wetter.com/timor-leste/morai/TL1635007.html,-8.6333,125.15,Asia/Dili,
natare,https://wetter.com/timor-leste/natare/TL1943635.html,-8.6497,125.3608,Asia/Dili,
raeme,https://wetter.com/timor-leste/raeme/TL1943365.html,-8.6067,125.2606,Asia/Dili,
vatumori,https://wetter.com/timor-leste/vatumori/TL1943440.html,-8.6739,125.1642,Asia/Dili,
moro,https://wetter.com/timor-leste/moro/TL1945480.html,-8.3581,126.93,Asia/Dili,
palistela,https://wetter.com/timor-leste/palistela/TL1943435.html,-8.6589,125.1428,Asia/Dili,
waupu,https://wetter.com/timor-leste/waupu/TL1943437.html,-8.6689,125.1358,Asia/Dili,
beboro,https://wetter.com/timor-leste/beboro/TL1943481.html,-8.5406,126.1653,Asia/Dili,
tuhilu-craic,https://wetter.com/timor-leste/tuhilu-craic/TL1943070.html,-8.6358,125.3953,Asia/Dili,
lisalara,https://wetter.com/timor-leste/lisalara/TL1943417.html,-8.6431,125.2269,Asia/Dili,
behau,https://wetter.com/timor-leste/behau/TL1944538.html,-8.4778,125.8903,Asia/Dili,
berato,https://wetter.com/timor-leste/berato/TL1943295.html,-8.5144,126.02,Asia/Dili,
ailili,https://wetter.com/timor-leste/ailili/TL1943313.html,-8.5119,126.0117,Asia/Dili,
corohoco,https://wetter.com/timor-leste/corohoco/TL1943473.html,-8.6058,126.1442,Asia/Dili,
iun,https://wetter.com/timor-leste/iun/TL1943292.html,-8.5139,126.0158,Asia/Dili,
maabat,https://wetter.com/timor-leste/maabat/TL1943296.html,-8.5125,126.0206,Asia/Dili,
nunuli,https://wetter.com/timor-leste/nunuli/TL1945065.html,-8.5308,125.9886,Asia/Dili,
watubau,https://wetter.com/timor-leste/watubau/TL1943611.html,-8.6497,125.2625,Asia/Dili,
metir,https://wetter.com/timor-leste/metir/TL1943076.html,-8.6269,125.3836,Asia/Dili,
tobau,https://wetter.com/timor-leste/tobau/TL1943862.html,-8.6625,125.1136,Asia/Dili,
leopa,https://wetter.com/timor-leste/leopa/TL1943455.html,-8.5917,125.3253,Asia/Dili,
pukelete,https://wetter.com/timor-leste/pukelete/TL1943402.html,-8.6347,125.1614,Asia/Dili,
luandau,https://wetter.com/timor-leste/luandau/TL1942827.html,-8.4544,126.8875,Asia/Dili,
levano,https://wetter.com/timor-leste/levano/TL1942841.html,-8.3781,126.92,Asia/Dili,
natura,https://wetter.com/timor-leste/natura/TL1945445.html,-8.5258,126.9956,Asia/Dili,
puno,https://wetter.com/timor-leste/puno/TL1942833.html,-8.4294,126.9369,Asia/Dili,
raca,https://wetter.com/timor-leste/raca/TL1945296.html,-8.6083,127.0203,Asia/Dili,
ulturo,https://wetter.com/timor-leste/ulturo/TL1945379.html,-8.5058,126.8339,Asia/Dili,
vero,https://wetter.com/timor-leste/vero/TL1942990.html,-8.3983,127.2492,Asia/Dili,
gariana,https://wetter.com/timor-leste/gariana/TL1943616.html,-8.6689,125.2936,Asia/Dili,
zefaliu,https://wetter.com/timor-leste/zefaliu/TL1945376.html,-8.5086,126.8322,Asia/Dili,
ergoa,https://wetter.com/timor-leste/ergoa/TL1943733.html,-8.6833,125.3647,Asia/Dili,
vasotoi,https://wetter.com/timor-leste/vasotoi/TL1943005.html,-8.4508,126.8233,Asia/Dili,
darolema,https://wetter.com/timor-leste/darolema/TL1943423.html,-8.6644,125.2253,Asia/Dili,
boibau,https://wetter.com/timor-leste/boibau/TL1648456.html,-8.6833,125.3172,Asia/Dili,
baura,https://wetter.com/timor-leste/baura/TL1943078.html,-8.6631,125.3836,Asia/Dili,
klaso,https://wetter.com/timor-leste/klaso/TL1942292.html,-8.5922,125.3997,Asia/Dili,
buku-mera,https://wetter.com/timor-leste/buku-mera/TL1943072.html,-8.6442,125.3906,Asia/Dili,
likisa,https://wetter.com/timor-leste/likisa/TL1637730.html,-8.5875,125.3419,Asia/Dili,
lebui,https://wetter.com/timor-leste/lebui/TL1943638.html,-8.6592,125.3572,Asia/Dili,
glai,https://wetter.com/timor-leste/glai/TL1943464.html,-8.7339,125.2008,Asia/Dili,
vatalara,https://wetter.com/timor-leste/vatalara/TL1945461.html,-8.5622,126.8994,Asia/Dili,
besite,https://wetter.com/timor-leste/besite/TL1942353.html,-8.5733,125.4578,Asia/Dili,
zanepa,https://wetter.com/indonesien/zanepa/ID1621142.html,-3.7167,136.8,Asia/Jayapura,
kokas-kota,https://wetter.com/indonesien/kokas-kota/ID1639783.html,-2.7014,132.4385,Asia/Jayapura,
meyado,https://wetter.com/indonesien/meyado/ID12110003.html,-1.9066,133.1525,Asia/Jayapura,
bofuer,https://wetter.com/indonesien/bofuer/ID8530692.html,-3.0114,133.7626,Asia/Jayapura,
kaimana,https://wetter.com/indonesien/kaimana/ID1642133.html,-3.6635,133.7649,Asia/Jayapura,
berebere,https://wetter.com/indonesien/berebere/ID1649023.html,2.3951,128.6636,Asia/Jayapura,
buli,https://wetter.com/indonesien/buli/ID8724349.html,0.6852,128.2909,Asia/Jayapura,
basiong,https://wetter.com/indonesien/basiong/ID8726195.html,0.7729,127.3748,Asia/Jayapura,
jailolo,https://wetter.com/indonesien/jailolo/ID1642920.html,1.065,127.4679,Asia/Jayapura,
syeri,https://wetter.com/indonesien/syeri/ID1625734.html,-1.6333,134.1,Asia/Jayapura,
ullong,https://wetter.com/indonesien/ullong/ID11025117.html,-1.3708,133.9131,Asia/Jayapura,
labuha,https://wetter.com/indonesien/labuha/ID1638874.html,-0.6255,127.4781,Asia/Jayapura,
tomu,https://wetter.com/indonesien/tomu/ID1623432.html,-2.217,132.9714,Asia/Jayapura,
masyeta,https://wetter.com/indonesien/masyeta/ID12110078.html,-1.5505,133.2388,Asia/Jayapura,
warganusa-satu,https://wetter.com/indonesien/warganusa-satu/ID1622012.html,-2.7641,133.6387,Asia/Jayapura,
kucir,https://wetter.com/indonesien/kucir/ID12110049.html,-1.9787,133.4069,Asia/Jayapura,
ransiki,https://wetter.com/indonesien/ransiki/ID1630034.html,-1.5083,134.1708,Asia/Jayapura,
oksibil,https://wetter.com/indonesien/oksibil/ID11012574.html,-4.9042,140.6297,Asia/Jayapura,
jagiro,https://wetter.com/indonesien/jagiro/ID12110005.html,-1.822,133.0475,Asia/Jayapura,
oransbari,https://wetter.com/indonesien/oransbari/ID1633551.html,-1.3442,134.2587,Asia/Jayapura,
konkonpine,https://wetter.com/indonesien/konkonpine/ID1639636.html,-2.7485,132.258,Asia/Jayapura,
rasiei,https://wetter.com/indonesien/rasiei/ID1629930.html,-2.817,134.5292,Asia/Jayapura,
serui,https://wetter.com/indonesien/serui/ID0IJ0007.html,-1.8802,136.2426,Asia/Jayapura,
opiaref,https://wetter.com/indonesien/opiaref/ID1633563.html,-1.1621,136.2572,Asia/Jayapura,
sentani,https://wetter.com/indonesien/sentani/ID2082460.html,-2.5691,140.5127,Asia/Jayapura,
waren,https://wetter.com/indonesien/waren/ID1622019.html,-2.2645,136.3342,Asia/Jayapura,
wardo,https://wetter.com/indonesien/wardo/ID1622023.html,-1.0623,135.8416,Asia/Jayapura,
kameri,https://wetter.com/indonesien/kameri/ID1641739.html,-0.9821,134.8046,Asia/Jayapura,
wembi,https://wetter.com/indonesien/wembi/ID2082390.html,-2.9833,140.9167,Asia/Jayapura,
waris,https://wetter.com/indonesien/waris/ID2082399.html,-3.1167,140.8833,Asia/Jayapura,
ubrub,https://wetter.com/indonesien/ubrub/ID2082416.html,-3.7131,140.8795,Asia/Jayapura,
dulanpokpok,https://wetter.com/indonesien/dulanpokpok/ID1645142.html,-2.9266,132.2721,Asia/Jayapura,
kiruru,https://wetter.com/indonesien/kiruru/ID1639970.html,-3.9389,134.9696,Asia/Jayapura,
raduria,https://wetter.com/indonesien/raduria/ID1630247.html,-2.9389,132.3345,Asia/Jayapura,
kramongmongga,https://wetter.com/indonesien/kramongmongga/ID12075733.html,-2.7599,132.3805,Asia/Jayapura,
adamata,https://wetter.com/indonesien/adamata/ID1651424.html,-2.6807,132.515,Asia/Jayapura,
manokwari,https://wetter.com/indonesien/manokwari/ID0IJ0004.html,-0.8629,134.064,Asia/Jayapura,
sarebe,https://wetter.com/indonesien/sarebe/ID1628609.html,-2.548,133.8276,Asia/Jayapura,
bintuni,https://wetter.com/indonesien/bintuni/ID1648691.html,-2.1097,133.5246,Asia/Jayapura,
merdey,https://wetter.com/indonesien/merdey/ID8530651.html,-1.5903,133.2946,Asia/Jayapura,
dofa,https://wetter.com/indonesien/dofa/ID1645389.html,-1.7952,125.3649,Asia/Jayapura,
andai,https://wetter.com/indonesien/andai/ID1651427.html,-0.9214,133.9998,Asia/Jayapura,
petani,https://wetter.com/indonesien/petani/ID8724347.html,0.3288,128.6527,Asia/Jayapura,
sausapor,https://wetter.com/indonesien/sausapor/ID1628725.html,-0.4999,132.0859,Asia/Jayapura,
malolo,https://wetter.com/indonesien/malolo/ID1636640.html,-1.9333,130.1833,Asia/Jayapura,
kabare,https://wetter.com/indonesien/kabare/ID1642289.html,-0.0149,130.8322,Asia/Jayapura,
erwang,https://wetter.com/indonesien/erwang/ID1644864.html,-2.0,129.9667,Asia/Jayapura,
kebar,https://wetter.com/indonesien/kebar/ID8530396.html,-0.8474,133.1457,Asia/Jayapura,
saonek,https://wetter.com/indonesien/saonek/ID1628696.html,-0.4379,130.7559,Asia/Jayapura,
goin,https://wetter.com/indonesien/goin/ID1643947.html,1.5523,127.6223,Asia/Jayapura,
laba,https://wetter.com/indonesien/laba/ID1638931.html,1.6951,127.6017,Asia/Jayapura,
seman,https://wetter.com/indonesien/seman/ID1627888.html,-1.5175,132.1554,Asia/Jayapura,
kupakupa,https://wetter.com/indonesien/kupakupa/ID1639076.html,1.6282,127.9813,Asia/Jayapura,
laiwui,https://wetter.com/indonesien/laiwui/ID1638735.html,-1.3518,127.6693,Asia/Jayapura,
kieici,https://wetter.com/indonesien/kieici/ID1640049.html,1.4847,127.5724,Asia/Jayapura,
sanana,https://wetter.com/indonesien/sanana/ID1628858.html,-2.0585,125.9779,Asia/Jayapura,
daruba,https://wetter.com/indonesien/daruba/ID1645663.html,2.0505,128.294,Asia/Jayapura,
subaim,https://wetter.com/indonesien/subaim/ID1626448.html,1.1203,128.133,Asia/Jayapura,
sofifi,https://wetter.com/indonesien/sofifi/ID1626698.html,0.7373,127.5588,Asia/Jayapura,
ternate,https://wetter.com/indonesien/ternate/ID1624041.html,0.7907,127.3842,Asia/Jayapura,
susupu,https://wetter.com/indonesien/susupu/ID1625765.html,1.1513,127.4324,Asia/Jayapura,
yirimami,https://wetter.com/indonesien/yirimami/ID1621182.html,-4.7667,137.0167,Asia/Jayapura,
samanente,https://wetter.com/indonesien/samanente/ID8531172.html,-2.1992,138.8803,Asia/Jayapura,
pitsjor,https://wetter.com/indonesien/pitsjor/ID1900724.html,-0.3218,130.8856,Asia/Jayapura,
sapokreng,https://wetter.com/indonesien/sapokreng/ID1624743.html,-0.4325,130.7255,Asia/Jayapura,
warkopi,https://wetter.com/indonesien/warkopi/ID1621979.html,-1.1408,134.112,Asia/Jayapura,
patipi-pasir,https://wetter.com/indonesien/patipi-pasir/ID12069592.html,-2.7121,132.1276,Asia/Jayapura,
tanusan,https://wetter.com/indonesien/tanusan/ID1624605.html,-3.1337,133.6472,Asia/Jayapura,
saassan,https://wetter.com/indonesien/saassan/ID1629370.html,-3.4082,132.6604,Asia/Jayapura,
ibonma,https://wetter.com/indonesien/ibonma/ID1643221.html,-3.4667,133.4667,Asia/Jayapura,
irarututiga,https://wetter.com/indonesien/irarututiga/ID1650860.html,-2.5368,133.4423,Asia/Jayapura,
koffo,https://wetter.com/indonesien/koffo/ID1639803.html,-1.4167,133.8667,Asia/Jayapura,
moskona-barat,https://wetter.com/indonesien/moskona-barat/ID12092721.html,-1.6299,132.9563,Asia/Jayapura,
tipin,https://wetter.com/indonesien/tipin/ID1623753.html,-0.9254,130.7931,Asia/Jayapura,
biscoop,https://wetter.com/indonesien/biscoop/ID12110098.html,-1.5913,133.2987,Asia/Jayapura,
onimsari,https://wetter.com/indonesien/onimsari/ID12087159.html,-2.8669,132.9922,Asia/Jayapura,
wasior,https://wetter.com/indonesien/wasior/ID8548995.html,-2.6423,134.4883,Asia/Jayapura,
warmare,https://wetter.com/indonesien/warmare/ID8530375.html,-1.1143,133.9361,Asia/Jayapura,
weriagar,https://wetter.com/indonesien/weriagar/ID12090865.html,-2.2712,132.8914,Asia/Jayapura,
windesi,https://wetter.com/indonesien/windesi/ID1621643.html,-2.4263,134.2152,Asia/Jayapura,
wanurian,https://wetter.com/indonesien/wanurian/ID1622064.html,-1.2463,131.5665,Asia/Jayapura,
waisai,https://wetter.com/indonesien/waisai/ID1622293.html,-0.2379,130.5072,Asia/Jayapura,
sawalu,https://wetter.com/indonesien/sawalu/ID1628462.html,-0.7597,131.6032,Asia/Jayapura,
tembuni,https://wetter.com/indonesien/tembuni/ID1623856.html,-1.9083,133.277,Asia/Jayapura,
trimuris,https://wetter.com/indonesien/trimuris/ID8531153.html,-1.9582,137.8366,Asia/Jayapura,
sumberbaba,https://wetter.com/indonesien/sumberbaba/ID1628965.html,-1.8188,136.7576,Asia/Jayapura,
korido,https://wetter.com/indonesien/korido/ID1639600.html,-0.8747,135.6344,Asia/Jayapura,
taar,https://wetter.com/indonesien/taar/ID1900156.html,-5.6585,132.7479,Asia/Jayapura,
amahai,https://wetter.com/indonesien/amahai/ID1651591.html,-3.3398,128.9198,Asia/Jayapura,
tulehu,https://wetter.com/indonesien/tulehu/ID1901631.html,-3.588,128.3273,Asia/Jayapura,
geser,https://wetter.com/indonesien/geser/ID1644127.html,-3.8788,130.8994,Asia/Jayapura,
tiakur,https://wetter.com/indonesien/tiakur/ID11010427.html,-8.15,127.795,Asia/Jayapura,
tip,https://wetter.com/indonesien/tip/ID1623761.html,-1.8322,130.1277,Asia/Jayapura,
langgur,https://wetter.com/indonesien/langgur/ID1638479.html,-5.6669,132.7376,Asia/Jayapura,
pati,https://wetter.com/indonesien/pati/ID1631991.html,-8.2053,127.8525,Asia/Jayapura,
gotta,https://wetter.com/indonesien/gotta/ID6698748.html,-4.0119,131.4299,Asia/Jayapura,
ambon,https://wetter.com/indonesien/ambon/ID1651531.html,-3.6958,128.1833,Asia/Jayapura,
walhani,https://wetter.com/indonesien/walhani/ID1622209.html,-3.1741,126.773,Asia/Jayapura,
tual,https://wetter.com/indonesien/tual/ID1623197.html,-5.6288,132.7523,Asia/Jayapura,
eliase,https://wetter.com/indonesien/eliase/ID1644981.html,-8.3315,130.7833,Asia/Jayapura,
majet,https://wetter.com/indonesien/majet/ID1900818.html,-0.4475,129.9169,Asia/Jayapura,
elat,https://wetter.com/indonesien/elat/ID1650394.html,-5.6578,132.9709,Asia/Jayapura,
taniwel,https://wetter.com/indonesien/taniwel/ID1625027.html,-2.8525,128.4772,Asia/Jayapura,
piru,https://wetter.com/indonesien/piru/ID1631075.html,-3.0618,128.1945,Asia/Jayapura,
batu-merah,https://wetter.com/indonesien/batu-merah/ID1649650.html,-3.6863,128.188,Asia/Jayapura,
bula,https://wetter.com/indonesien/bula/ID1647845.html,-3.1112,130.4954,Asia/Jayapura,
masohi,https://wetter.com/indonesien/masohi/ID8667930.html,-3.2983,128.9688,Asia/Jayapura,
oki,https://wetter.com/indonesien/oki/ID1633627.html,-3.786,126.8601,Asia/Jayapura,
seget,https://wetter.com/indonesien/seget/ID1628212.html,-1.4118,130.9748,Asia/Jayapura,
yennanas-besir,https://wetter.com/indonesien/yennanas-besir/ID1900936.html,-0.4597,130.6878,Asia/Jayapura,
kota-ternate,https://wetter.com/indonesien/kota-ternate/ID7910925.html,0.7833,127.3667,Asia/Jayapura,
airbuaya,https://wetter.com/indonesien/airbuaya/ID1651867.html,-3.103,126.4207,Asia/Jayapura,
saukorem,https://wetter.com/indonesien/saukorem/ID1628508.html,-0.565,133.1527,Asia/Jayapura,
waigama,https://wetter.com/indonesien/waigama/ID1622357.html,-1.8364,129.8316,Asia/Jayapura,
amahusu,https://wetter.com/indonesien/amahusu/ID7040623.html,-3.7253,128.1471,Asia/Jayapura,
hila,https://wetter.com/indonesien/hila/ID1643323.html,-3.5869,128.088,Asia/Jayapura,
tehoru,https://wetter.com/indonesien/tehoru/ID1624428.html,-3.4432,129.5434,Asia/Jayapura,
saparua,https://wetter.com/indonesien/saparua/ID1628682.html,-3.573,128.6524,Asia/Jayapura,
banda-neira,https://wetter.com/indonesien/banda-neira/ID1650390.html,-4.5262,129.9035,Asia/Jayapura,
namlea,https://wetter.com/indonesien/namlea/ID1634519.html,-3.2619,127.0929,Asia/Jayapura,
passo,https://wetter.com/indonesien/passo/ID1632046.html,-3.6301,128.2524,Asia/Jayapura,
pelau,https://wetter.com/indonesien/pelau/ID1631695.html,-3.5204,128.4681,Asia/Jayapura,
namrole,https://wetter.com/indonesien/namrole/ID1634511.html,-3.8455,126.7262,Asia/Jayapura,
leksula,https://wetter.com/indonesien/leksula/ID1638133.html,-3.7731,126.538,Asia/Jayapura,
dobo,https://wetter.com/indonesien/dobo/ID1645413.html,-5.7609,134.2341,Asia/Jayapura,
taberfane,https://wetter.com/indonesien/taberfane/ID1625697.html,-6.1692,134.1332,Asia/Jayapura,
ternate,https://wetter.com/indonesien/ternate/ID1901349.html,-3.2733,126.0097,Asia/Jayapura,
kairatu,https://wetter.com/indonesien/kairatu/ID1642125.html,-3.3517,128.3685,Asia/Jayapura,
waipia,https://wetter.com/indonesien/waipia/ID8667932.html,-3.1878,128.903,Asia/Jayapura,
waimar,https://wetter.com/indonesien/waimar/ID1900204.html,-5.5175,133.0378,Asia/Jayapura,
kenyam,https://wetter.com/indonesien/kenyam/ID11012573.html,-4.5997,138.3842,Asia/Jayapura,
kobakma,https://wetter.com/indonesien/kobakma/ID11012571.html,-3.6642,139.065,Asia/Jayapura,
wurigelebur,https://wetter.com/indonesien/wurigelebur/ID8531216.html,-3.7627,138.8085,Asia/Jayapura,
wamena,https://wetter.com/indonesien/wamena/ID1622167.html,-4.0958,138.9481,Asia/Jayapura,
burmeso,https://wetter.com/indonesien/burmeso/ID11012570.html,-2.3261,138.0414,Asia/Jayapura,
karubaga,https://wetter.com/indonesien/karubaga/ID8531221.html,-3.6994,138.4579,Asia/Jayapura,
sumohai,https://wetter.com/indonesien/sumohai/ID11023932.html,-4.6894,139.3547,Asia/Jayapura,
sarmi,https://wetter.com/indonesien/sarmi/ID1628587.html,-1.853,138.7509,Asia/Jayapura,
tiom,https://wetter.com/indonesien/tiom/ID1623772.html,-3.9236,138.4547,Asia/Jayapura,
elelim,https://wetter.com/indonesien/elelim/ID11023936.html,-3.759,139.7075,Asia/Jayapura,
bosnik,https://wetter.com/indonesien/bosnik/ID1648124.html,-1.1572,136.2283,Asia/Jayapura,
sawoi,https://wetter.com/indonesien/sawoi/ID8531309.html,-2.6246,140.3356,Asia/Jayapura,
botawa,https://wetter.com/indonesien/botawa/ID11022289.html,-2.21,136.4472,Asia/Jayapura,
jayapura,https://wetter.com/indonesien/jayapura/ID0IJ0003.html,-2.5337,140.7181,Asia/Jayapura,
sengge,https://wetter.com/indonesien/sengge/ID2082461.html,-3.4475,140.7751,Asia/Jayapura,
fakfak,https://wetter.com/indonesien/fakfak/ID0IJ0002.html,-2.9248,132.2981,Asia/Jayapura,
korem,https://wetter.com/indonesien/korem/ID1639598.html,-0.9,136.0408,Asia/Jayapura,
sorendiweri,https://wetter.com/indonesien/sorendiweri/ID1626551.html,-0.7339,135.7361,Asia/Jayapura,
betaf,https://wetter.com/indonesien/betaf/ID1648909.html,-2.1142,139.2528,Asia/Jayapura,
sidangoli,https://wetter.com/indonesien/sidangoli/ID1627270.html,0.8883,127.5021,Asia/Jayapura,
alkmaar,https://wetter.com/indonesien/alkmaar/ID1651618.html,-4.6642,138.7654,Asia/Jayapura,
depapre,https://wetter.com/indonesien/depapre/ID2082652.html,-2.4869,140.3711,Asia/Jayapura,
wahai,https://wetter.com/indonesien/wahai/ID1622382.html,-2.7953,129.5382,Asia/Jayapura,
ansus,https://wetter.com/indonesien/ansus/ID1651362.html,-1.7256,135.8115,Asia/Jayapura,
abepura,https://wetter.com/indonesien/abepura/ID2082727.html,-2.5964,140.6324,Asia/Jayapura,
warna,https://wetter.com/indonesien/warna/ID1900092.html,-5.9915,132.4671,Asia/Jayapura,
armopa,https://wetter.com/indonesien/armopa/ID1651216.html,-2.3409,139.6335,Asia/Jayapura,
arbais,https://wetter.com/indonesien/arbais/ID8531154.html,-1.7393,138.4043,Asia/Jayapura,
werinama,https://wetter.com/indonesien/werinama/ID1621619.html,-3.5029,130.1105,Asia/Jayapura,
banda,https://wetter.com/indonesien/banda/ID8531211.html,-3.1796,140.9419,Asia/Jayapura,
bikondini,https://wetter.com/indonesien/bikondini/ID1648354.html,-3.6584,138.5747,Asia/Jayapura,
genyem,https://wetter.com/indonesien/genyem/ID2082625.html,-2.5791,140.1495,Asia/Jayapura,
barapas,https://wetter.com/indonesien/barapas/ID1650044.html,-2.199,137.0013,Asia/Jayapura,
demta,https://wetter.com/indonesien/demta/ID2082655.html,-2.3589,140.1473,Asia/Jayapura,
insrom,https://wetter.com/indonesien/insrom/ID1626548.html,-1.1447,136.0313,Asia/Jayapura,
kasonawejo,https://wetter.com/indonesien/kasonawejo/ID1640996.html,-2.2818,138.0348,Asia/Jayapura,
dabra,https://wetter.com/indonesien/dabra/ID1645866.html,-3.2453,138.5878,Asia/Jayapura,
biak,https://wetter.com/indonesien/biak/ID0IJ0001.html,-1.1767,136.082,Asia/Jayapura,
arso,https://wetter.com/indonesien/arso/ID2082704.html,-2.9028,140.7657,Asia/Jayapura,
subaru,https://wetter.com/indonesien/subaru/ID1626437.html,-2.05,137.4,Asia/Jayapura,
guay,https://wetter.com/indonesien/guay/ID8531185.html,-2.5033,139.8099,Asia/Jayapura,
jambula,https://wetter.com/indonesien/jambula/ID1642840.html,0.7578,127.3183,Asia/Jayapura,
airpanas,https://wetter.com/indonesien/airpanas/ID1651752.html,-0.67,127.4782,Asia/Jayapura,
guruafin,https://wetter.com/indonesien/guruafin/ID8726236.html,0.1014,127.434,Asia/Jayapura,
goni,https://wetter.com/indonesien/goni/ID1643875.html,-2.8833,134.6667,Asia/Jayapura,
nabire,https://wetter.com/indonesien/nabire/ID0IJ0006.html,-3.3599,135.5007,Asia/Jayapura,
mabado,https://wetter.com/indonesien/mabado/ID1636988.html,-4.0842,136.0519,Asia/Jayapura,
mulia,https://wetter.com/indonesien/mulia/ID1634739.html,-3.7147,137.9853,Asia/Jayapura,
madi,https://wetter.com/indonesien/madi/ID1636942.html,-3.9734,136.4523,Asia/Jayapura,
bilogai,https://wetter.com/indonesien/bilogai/ID8530839.html,-3.7181,136.6683,Asia/Jayapura,
beoga,https://wetter.com/indonesien/beoga/ID1649083.html,-3.65,137.5,Asia/Jayapura,
beoga,https://wetter.com/indonesien/beoga/ID8530865.html,-3.8395,137.1667,Asia/Jayapura,
moanemani,https://wetter.com/indonesien/moanemani/ID8530814.html,-3.9679,136.1116,Asia/Jayapura,
dufa-dufa,https://wetter.com/indonesien/dufa-dufa/ID8726312.html,-0.4618,127.15,Asia/Jayapura,
bade,https://wetter.com/indonesien/bade/ID1650833.html,-7.1667,139.5833,Asia/Jayapura,
senayo,https://wetter.com/indonesien/senayo/ID2082463.html,-8.2946,140.7378,Asia/Jayapura,
gelib,https://wetter.com/indonesien/gelib/ID1644269.html,-8.1,139.1333,Asia/Jayapura,
napan-yaur,https://wetter.com/indonesien/napan-yaur/ID1634359.html,-2.9167,134.8333,Asia/Jayapura,
kepi,https://wetter.com/indonesien/kepi/ID1640293.html,-6.5246,139.3222,Asia/Jayapura,
mindiptana,https://wetter.com/indonesien/mindiptana/ID8527496.html,-5.8639,140.6925,Asia/Jayapura,
nuweh,https://wetter.com/indonesien/nuweh/ID1633776.html,-7.2,139.1333,Asia/Jayapura,
sibenda,https://wetter.com/indonesien/sibenda/ID1627293.html,-7.9929,138.1485,Asia/Jayapura,
merauke,https://wetter.com/indonesien/merauke/ID0IJ0005.html,-8.4996,140.4061,Asia/Jayapura,
terik,https://wetter.com/indonesien/terik/ID2082424.html,-6.85,140.2667,Asia/Jayapura,
piem,https://wetter.com/indonesien/piem/ID2082494.html,-7.8333,140.5333,Asia/Jayapura,
wariek,https://wetter.com/indonesien/wariek/ID2082401.html,-8.3376,140.6874,Asia/Jayapura,
tubai,https://wetter.com/indonesien/tubai/ID2082419.html,-6.6833,140.3333,Asia/Jayapura,
barattar,https://wetter.com/indonesien/barattar/ID2082690.html,-8.9944,140.852,Asia/Jayapura,
keira,https://wetter.com/indonesien/keira/ID2082578.html,-7.4667,140.5,Asia/Jayapura,
asike,https://wetter.com/indonesien/asike/ID2082700.html,-6.6473,140.4173,Asia/Jayapura,
estana,https://wetter.com/indonesien/estana/ID2082631.html,-5.75,140.9,Asia/Jayapura,
uba,https://wetter.com/indonesien/uba/ID2082417.html,-7.45,140.0167,Asia/Jayapura,
dieo,https://wetter.com/indonesien/dieo/ID1645474.html,-8.05,138.9667,Asia/Jayapura,
siebu,https://wetter.com/indonesien/siebu/ID1627227.html,-3.2667,134.9,Asia/Jayapura,
kigamani,https://wetter.com/indonesien/kigamani/ID11011787.html,-3.9614,135.9436,Asia/Jayapura,
obano,https://wetter.com/indonesien/obano/ID1633697.html,-3.9259,136.2259,Asia/Jayapura,
waghete,https://wetter.com/indonesien/waghete/ID8519873.html,-4.039,136.2749,Asia/Jayapura,
uta,https://wetter.com/indonesien/uta/ID1622556.html,-4.5536,136.0339,Asia/Jayapura,
muraukwa,https://wetter.com/indonesien/muraukwa/ID1634666.html,-4.8333,136.7,Asia/Jayapura,
sugapa,https://wetter.com/indonesien/sugapa/ID11011788.html,-3.7431,137.05,Asia/Jayapura,
mapurujaya,https://wetter.com/indonesien/mapurujaya/ID8655725.html,-4.6752,136.8297,Asia/Jayapura,
pikapu,https://wetter.com/indonesien/pikapu/ID1631181.html,-4.6977,136.7313,Asia/Jayapura,
mimika,https://wetter.com/indonesien/mimika/ID1635243.html,-4.7,136.4667,Asia/Jayapura,
timika,https://wetter.com/indonesien/timika/ID0IJ0009.html,-4.6141,136.6768,Asia/Jayapura,
parepye,https://wetter.com/indonesien/parepye/ID1632350.html,-4.666,136.3308,Asia/Jayapura,
kaokanao,https://wetter.com/indonesien/kaokanao/ID1639779.html,-4.7136,136.4414,Asia/Jayapura,
homeyo,https://wetter.com/indonesien/homeyo/ID8530810.html,-3.663,136.4692,Asia/Jayapura,
piava,https://wetter.com/indonesien/piava/ID1631206.html,-4.6167,136.9,Asia/Jayapura,
topo,https://wetter.com/indonesien/topo/ID8530790.html,-3.5403,135.5375,Asia/Jayapura,
tembagapura,https://wetter.com/indonesien/tembagapura/ID1624232.html,-4.1424,137.0899,Asia/Jayapura,
moma,https://wetter.com/indonesien/moma/ID1635070.html,-3.8833,135.5667,Asia/Jayapura,
tigi,https://wetter.com/indonesien/tigi/ID1623923.html,-3.9667,136.2667,Asia/Jayapura,
maba,https://wetter.com/indonesien/maba/ID1636990.html,0.7007,128.292,Asia/Jayapura,
hapo,https://wetter.com/indonesien/hapo/ID1643439.html,2.5246,128.4083,Asia/Jayapura,
likata,https://wetter.com/indonesien/likata/ID1637736.html,0.8729,127.6428,Asia/Jayapura,
haleake,https://wetter.com/indonesien/haleake/ID1643484.html,0.9779,127.5089,Asia/Jayapura,
meno,https://wetter.com/indonesien/meno/ID1635500.html,-3.8667,135.5167,Asia/Jayapura,
ilaga,https://wetter.com/indonesien/ilaga/ID11012575.html,-3.95,137.4,Asia/Jayapura,
tage,https://wetter.com/indonesien/tage/ID1624441.html,-3.9294,136.9323,Asia/Jayapura,
kwantisore,https://wetter.com/indonesien/kwantisore/ID1638947.html,-3.2651,134.9065,Asia/Jayapura,
kawar,https://wetter.com/indonesien/kawar/ID1640895.html,-4.65,136.2,Asia/Jayapura,
enarotali,https://wetter.com/indonesien/enarotali/ID1644935.html,-3.9303,136.3765,Asia/Jayapura,
kumopa,https://wetter.com/indonesien/kumopa/ID8530813.html,-3.8216,136.5092,Asia/Jayapura,
amara,https://wetter.com/indonesien/amara/ID1651580.html,-4.35,135.3667,Asia/Jayapura,
bomomani,https://wetter.com/indonesien/bomomani/ID8530638.html,-4.0659,135.8182,Asia/Jayapura,
kimaam,https://wetter.com/indonesien/kimaam/ID1640013.html,-7.9851,138.8469,Asia/Jayapura,
damund,https://wetter.com/indonesien/damund/ID1645746.html,-7.8833,139.9833,Asia/Jayapura,
iesemer,https://wetter.com/indonesien/iesemer/ID1643195.html,-6.8,139.4,Asia/Jayapura,
guis,https://wetter.com/indonesien/guis/ID2082619.html,-6.8167,140.8667,Asia/Jayapura,
argasi,https://wetter.com/indonesien/argasi/ID1651243.html,-1.6,132.0667,Asia/Jayapura,
aifat,https://wetter.com/indonesien/aifat/ID8667870.html,-1.1664,132.5015,Asia/Jayapura,
sorong,https://wetter.com/indonesien/sorong/ID0IJ0008.html,-0.8796,131.261,Asia/Jayapura,
makbon,https://wetter.com/indonesien/makbon/ID1636775.html,-0.7475,131.5388,Asia/Jayapura,
kumurkek,https://wetter.com/indonesien/kumurkek/ID1639111.html,-1.2567,132.4997,Asia/Jayapura,
gohsenah,https://wetter.com/indonesien/gohsenah/ID1643948.html,-1.4333,132.35,Asia/Jayapura,
sekof,https://wetter.com/indonesien/sekof/ID1628111.html,-1.3,132.2167,Asia/Jayapura,
fetsawit,https://wetter.com/indonesien/fetsawit/ID1644767.html,-1.4667,132.1333,Asia/Jayapura,
salem,https://wetter.com/indonesien/salem/ID1629105.html,-0.75,132.3167,Asia/Jayapura,
bobong,https://wetter.com/indonesien/bobong/ID1648512.html,-1.9463,124.3839,Asia/Jayapura,
samate,https://wetter.com/indonesien/samate/ID1628995.html,-0.9667,131.0667,Asia/Jayapura,
doom,https://wetter.com/indonesien/doom/ID8667844.html,-0.8872,131.2364,Asia/Jayapura,
serkos,https://wetter.com/indonesien/serkos/ID1643103.html,-2.1255,132.1669,Asia/Jayapura,
teminabuan,https://wetter.com/indonesien/teminabuan/ID1624196.html,-1.4416,132.0143,Asia/Jayapura,
fef,https://wetter.com/indonesien/fef/ID11025990.html,-0.8089,132.4322,Asia/Jayapura,
podol,https://wetter.com/indonesien/podol/ID1630979.html,1.5237,127.5619,Asia/Jayapura,
puni,https://wetter.com/indonesien/puni/ID1630403.html,1.8174,127.8453,Asia/Jayapura,
weda,https://wetter.com/indonesien/weda/ID1621683.html,0.3295,127.8739,Asia/Jayapura,
umaga,https://wetter.com/indonesien/umaga/ID1622716.html,-2.1684,125.9585,Asia/Jayapura,
tongutisungi,https://wetter.com/indonesien/tongutisungi/ID1623385.html,1.4981,127.5557,Asia/Jayapura,
kafaket,https://wetter.com/indonesien/kafaket/ID1906672.html,-2.02,130.2619,Asia/Jayapura,
eci,https://wetter.com/indonesien/eci/ID8526083.html,-6.1238,139.1537,Asia/Jayapura,
tobelo,https://wetter.com/indonesien/tobelo/ID1623651.html,1.7284,128.0095,Asia/Jayapura,
aitinyo,https://wetter.com/indonesien/aitinyo/ID1651084.html,-1.3119,132.3447,Asia/Jayapura,
waylau,https://wetter.com/indonesien/waylau/ID1901327.html,-2.1502,125.9568,Asia/Jayapura,
silang,https://wetter.com/indonesien/silang/ID1627131.html,-0.8512,127.7153,Asia/Jayapura,
saluta,https://wetter.com/indonesien/saluta/ID1629030.html,2.0649,127.9695,Asia/Jayapura,
sewi,https://wetter.com/indonesien/sewi/ID1627363.html,1.8164,127.8269,Asia/Jayapura,
mega,https://wetter.com/indonesien/mega/ID1635707.html,-0.6639,131.9049,Asia/Jayapura,
papermaranda,https://wetter.com/indonesien/papermaranda/ID1632440.html,-0.8833,131.2833,Asia/Jayapura,
ayamaru,https://wetter.com/indonesien/ayamaru/ID1650999.html,-1.2745,132.1933,Asia/Jayapura,
mafa,https://wetter.com/indonesien/mafa/ID1636904.html,0.0471,127.8904,Asia/Jayapura,
aimas,https://wetter.com/indonesien/aimas/ID11025556.html,-0.957,131.3354,Asia/Jayapura,
prori,https://wetter.com/indonesien/prori/ID1630624.html,-0.7,133.3167,Asia/Jayapura,
yugi,https://wetter.com/indonesien/yugi/ID1621149.html,-7.6167,139.45,Asia/Jayapura,
getentiri,https://wetter.com/indonesien/getentiri/ID8527358.html,-6.5889,140.3461,Asia/Jayapura,
papis,https://wetter.com/indonesien/papis/ID2082501.html,-7.8667,140.6,Asia/Jayapura,
habeeyaman,https://wetter.com/indonesien/habeeyaman/ID1643511.html,-7.5833,139.1167,Asia/Jayapura,
bergur,https://wetter.com/indonesien/bergur/ID2082682.html,-7.9667,140.95,Asia/Jayapura,
muting,https://wetter.com/indonesien/muting/ID8527444.html,-7.3076,140.5578,Asia/Jayapura,
manngan,https://wetter.com/indonesien/manngan/ID1636312.html,-8.0333,139.3333,Asia/Jayapura,
yeem,https://wetter.com/indonesien/yeem/ID2082364.html,-7.7667,140.0,Asia/Jayapura,
agats,https://wetter.com/indonesien/agats/ID1651852.html,-5.5451,138.1352,Asia/Jayapura,
kaliki,https://wetter.com/indonesien/kaliki/ID2082593.html,-8.0333,140.2333,Asia/Jayapura,
wetau,https://wetter.com/indonesien/wetau/ID1621593.html,-7.9267,138.0806,Asia/Jayapura,
uwi,https://wetter.com/indonesien/uwi/ID1622510.html,-7.9667,139.9667,Asia/Jayapura,
aan,https://wetter.com/indonesien/aan/ID1651941.html,-6.9333,139.9667,Asia/Jayapura,
wotap,https://wetter.com/indonesien/wotap/ID2082384.html,-5.7833,140.55,Asia/Jayapura,
mu,https://wetter.com/indonesien/mu/ID1634945.html,-7.6,139.7333,Asia/Jayapura,
yuli,https://wetter.com/indonesien/yuli/ID2082357.html,-7.8,140.85,Asia/Jayapura,
malifud,https://wetter.com/indonesien/malifud/ID8726235.html,0.3638,127.4228,Asia/Jayapura,
tanah-merah,https://wetter.com/indonesien/tanah-merah/ID2082430.html,-6.0976,140.3065,Asia/Jayapura,
nezhdaninskoe,https://wetter.com/russland/nezhdaninskoe/RU6930488.html,62.5052,139.051,Asia/Khandyga,
chandyga,https://wetter.com/russland/chandyga/RU2022773.html,62.6533,135.5667,Asia/Khandyga,
sech-on,https://wetter.com/nordkorea/sech-on/KP6305713.html,42.5772,129.837,Asia/Pyongyang,
musan-up,https://wetter.com/nordkorea/musan-up/KP2042738.html,42.2261,129.2078,Asia/Pyongyang,
namyang,https://wetter.com/nordkorea/namyang/KP2042503.html,42.9511,129.8589,Asia/Pyongyang,
hudo-ri,https://wetter.com/nordkorea/hudo-ri/KP2044021.html,40.1142,124.7161,Asia/Pyongyang,
yonbongsa,https://wetter.com/nordkorea/yonbongsa/KP2049241.html,42.7197,129.9295,Asia/Pyongyang,
chongju,https://wetter.com/nordkorea/chongju/KP1878389.html,39.6933,125.2103,Asia/Pyongyang,
songgotchi-dong,https://wetter.com/nordkorea/songgotchi-dong/KP2054656.html,40.0953,126.1375,Asia/Pyongyang,
soal-li,https://wetter.com/nordkorea/soal-li/KP2055535.html,40.9167,127.3186,Asia/Pyongyang,
song-dong,https://wetter.com/nordkorea/song-dong/KP2040643.html,41.1003,126.3364,Asia/Pyongyang,
irak,https://wetter.com/nordkorea/irak/KP6383825.html,40.5392,128.31,Asia/Pyongyang,
yusong-ni,https://wetter.com/nordkorea/yusong-ni/KP2038822.html,40.4284,125.6083,Asia/Pyongyang,
yongdaech-am,https://wetter.com/nordkorea/yongdaech-am/KP2054713.html,40.0758,126.1425,Asia/Pyongyang,
songha-rodongjagu,https://wetter.com/nordkorea/songha-rodongjagu/KP2040605.html,40.7962,126.5782,Asia/Pyongyang,
taean-dong,https://wetter.com/nordkorea/taean-dong/KP6282703.html,40.8331,126.23,Asia/Pyongyang,
ungnam-dong,https://wetter.com/nordkorea/ungnam-dong/KP2039563.html,41.1981,129.1986,Asia/Pyongyang,
ujung-ni,https://wetter.com/nordkorea/ujung-ni/KP2039618.html,40.6203,125.6367,Asia/Pyongyang,
such-im-ch-am,https://wetter.com/nordkorea/such-im-ch-am/KP6302265.html,40.9345,126.6237,Asia/Pyongyang,
panghyon-dong,https://wetter.com/nordkorea/panghyon-dong/KP1872726.html,39.8872,125.2414,Asia/Pyongyang,
kusong,https://wetter.com/nordkorea/kusong/KP1875107.html,39.9811,125.2447,Asia/Pyongyang,
inp-yong,https://wetter.com/nordkorea/inp-yong/KP1879606.html,39.9081,125.3114,Asia/Pyongyang,
an-toegogae,https://wetter.com/nordkorea/an-toegogae/KP1892042.html,39.9628,125.4642,Asia/Pyongyang,
mubang-dong,https://wetter.com/nordkorea/mubang-dong/KP2048753.html,40.03,125.9092,Asia/Pyongyang,
yonsa-up,https://wetter.com/nordkorea/yonsa-up/KP2038902.html,41.9081,129.0111,Asia/Pyongyang,
in-gol,https://wetter.com/nordkorea/in-gol/KP6281690.html,40.0653,124.6169,Asia/Pyongyang,
iui-dong,https://wetter.com/nordkorea/iui-dong/KP2048748.html,40.0459,125.9914,Asia/Pyongyang,
k-ungangnamp-um,https://wetter.com/nordkorea/k-ungangnamp-um/KP1875262.html,39.5,124.7,Asia/Pyongyang,
undok,https://wetter.com/nordkorea/undok/KP2039589.html,42.5188,130.3348,Asia/Pyongyang,
kimch-aek-si,https://wetter.com/nordkorea/kimch-aek-si/KP2043478.html,40.6689,129.1897,Asia/Pyongyang,
namsan,https://wetter.com/nordkorea/namsan/KP12088116.html,42.2275,129.2541,Asia/Pyongyang,
onsong,https://wetter.com/nordkorea/onsong/KP2042267.html,42.9572,129.9933,Asia/Pyongyang,
aoji,https://wetter.com/nordkorea/aoji/KP2045311.html,42.5245,130.3972,Asia/Pyongyang,
kyongsong,https://wetter.com/nordkorea/kyongsong/KP2042987.html,41.5878,129.6061,Asia/Pyongyang,
ranam,https://wetter.com/nordkorea/ranam/KP2042498.html,41.7136,129.6844,Asia/Pyongyang,
hoeryong,https://wetter.com/nordkorea/hoeryong/KP2044091.html,42.4411,129.746,Asia/Pyongyang,
chungbong,https://wetter.com/nordkorea/chungbong/KP6305686.html,42.5776,129.8844,Asia/Pyongyang,
kyongwon,https://wetter.com/nordkorea/kyongwon/KP2042985.html,42.812,130.1653,Asia/Pyongyang,
sang-dong,https://wetter.com/nordkorea/sang-dong/KP6400219.html,40.5522,127.6981,Asia/Pyongyang,
hahoe-dong,https://wetter.com/nordkorea/hahoe-dong/KP12083759.html,42.5042,130.4952,Asia/Pyongyang,
ch-ongjin,https://wetter.com/nordkorea/ch-ongjin/KPXY00002.html,41.7956,129.7758,Asia/Pyongyang,
chungdori,https://wetter.com/nordkorea/chungdori/KP6305369.html,42.4273,129.7634,Asia/Pyongyang,
komusan-il-tong,https://wetter.com/nordkorea/komusan-il-tong/KP2050500.html,42.1091,129.7,Asia/Pyongyang,
naesandongson-dong,https://wetter.com/nordkorea/naesandongson-dong/KP2042661.html,41.0667,129.6333,Asia/Pyongyang,
haonp-o-ri,https://wetter.com/nordkorea/haonp-o-ri/KP2050559.html,41.6056,129.5714,Asia/Pyongyang,
p-ungin,https://wetter.com/nordkorea/p-ungin/KP12090378.html,42.9307,130.0499,Asia/Pyongyang,
puryong,https://wetter.com/nordkorea/puryong/KP2041702.html,42.0606,129.7117,Asia/Pyongyang,
ch-olchu-ri,https://wetter.com/nordkorea/ch-olchu-ri/KP2050494.html,42.3699,130.2704,Asia/Pyongyang,
ryongdang,https://wetter.com/nordkorea/ryongdang/KP12083823.html,42.7241,130.2263,Asia/Pyongyang,
kusade,https://wetter.com/nordkorea/kusade/KP2049861.html,41.3822,129.4008,Asia/Pyongyang,
paeryong,https://wetter.com/nordkorea/paeryong/KP2049746.html,41.0669,129.45,Asia/Pyongyang,
sungam-nodongjagu,https://wetter.com/nordkorea/sungam-nodongjagu/KP2040316.html,41.6697,129.6689,Asia/Pyongyang,
hongsu-gol,https://wetter.com/nordkorea/hongsu-gol/KP2052118.html,41.3806,129.4253,Asia/Pyongyang,
kilju,https://wetter.com/nordkorea/kilju/KP2043484.html,40.9642,129.3278,Asia/Pyongyang,
sambong,https://wetter.com/nordkorea/sambong/KP12083895.html,42.6887,129.7946,Asia/Pyongyang,
tokkil,https://wetter.com/nordkorea/tokkil/KP6305578.html,40.7589,129.5286,Asia/Pyongyang,
kogonwon,https://wetter.com/nordkorea/kogonwon/KP12083797.html,42.6631,130.2018,Asia/Pyongyang,
sohomi-dong,https://wetter.com/nordkorea/sohomi-dong/KP6305306.html,42.1127,130.1156,Asia/Pyongyang,
kwirak,https://wetter.com/nordkorea/kwirak/KP12084874.html,42.4932,130.3205,Asia/Pyongyang,
an-golch-on,https://wetter.com/nordkorea/an-golch-on/KP6302779.html,40.4792,128.9817,Asia/Pyongyang,
changch-ung-ni,https://wetter.com/nordkorea/changch-ung-ni/KP2045203.html,40.3432,128.6586,Asia/Pyongyang,
namjang,https://wetter.com/nordkorea/namjang/KP2042577.html,41.5708,129.6014,Asia/Pyongyang,
ukkarae-gol,https://wetter.com/nordkorea/ukkarae-gol/KP1867118.html,38.5853,127.5897,Asia/Pyongyang,
wonsan,https://wetter.com/nordkorea/wonsan/KP1866923.html,39.1528,127.4436,Asia/Pyongyang,
yongam,https://wetter.com/nordkorea/yongam/KP1889320.html,38.6489,126.7586,Asia/Pyongyang,
rimgan-ni,https://wetter.com/nordkorea/rimgan-ni/KP2043755.html,42.0974,129.0295,Asia/Pyongyang,
uijin-dong,https://wetter.com/nordkorea/uijin-dong/KP2039625.html,40.9752,126.4958,Asia/Pyongyang,
yugok,https://wetter.com/nordkorea/yugok/KP1948370.html,38.4917,127.6703,Asia/Pyongyang,
yongnu-ri,https://wetter.com/nordkorea/yongnu-ri/KP1866180.html,39.3947,127.2914,Asia/Pyongyang,
yul-tong,https://wetter.com/nordkorea/yul-tong/KP1948322.html,38.3819,127.5508,Asia/Pyongyang,
champ-o,https://wetter.com/nordkorea/champ-o/KP6305804.html,41.3597,129.3175,Asia/Pyongyang,
iwon-up,https://wetter.com/nordkorea/iwon-up/KP2043677.html,40.3231,128.6553,Asia/Pyongyang,
sohandae,https://wetter.com/nordkorea/sohandae/KP6400202.html,40.6761,127.5239,Asia/Pyongyang,
paep-ung-ni,https://wetter.com/nordkorea/paep-ung-ni/KP2042123.html,40.5978,125.3036,Asia/Pyongyang,
saajae,https://wetter.com/nordkorea/saajae/KP2049391.html,41.0746,127.4385,Asia/Pyongyang,
yaksu,https://wetter.com/nordkorea/yaksu/KP1866829.html,39.6283,124.6342,Asia/Pyongyang,
wonsan,https://wetter.com/nordkorea/wonsan/KP6269660.html,39.9353,125.1506,Asia/Pyongyang,
yomju-up,https://wetter.com/nordkorea/yomju-up/KP1866587.html,39.8933,124.5981,Asia/Pyongyang,
waya-dong,https://wetter.com/nordkorea/waya-dong/KP1891991.html,39.8086,125.6728,Asia/Pyongyang,
uiju,https://wetter.com/nordkorea/uiju/KP2039623.html,40.1994,124.5317,Asia/Pyongyang,
uihung-ni,https://wetter.com/nordkorea/uihung-ni/KP2049086.html,40.6103,125.2978,Asia/Pyongyang,
wonp-ungch-am,https://wetter.com/nordkorea/wonp-ungch-am/KP2048767.html,40.0683,125.5203,Asia/Pyongyang,
tapp-ung-ni,https://wetter.com/nordkorea/tapp-ung-ni/KP2040024.html,40.2436,125.2397,Asia/Pyongyang,
sungaegok,https://wetter.com/nordkorea/sungaegok/KP2040318.html,40.2094,124.5117,Asia/Pyongyang,
pukchil-lodongjagu,https://wetter.com/nordkorea/pukchil-lodongjagu/KP2041817.html,40.2019,125.7483,Asia/Pyongyang,
taeyu-rodongjagu,https://wetter.com/nordkorea/taeyu-rodongjagu/KP2040084.html,40.3053,125.5756,Asia/Pyongyang,
saodong-sansong-dong,https://wetter.com/nordkorea/saodong-sansong-dong/KP6270298.html,39.9078,125.9347,Asia/Pyongyang,
pongam,https://wetter.com/nordkorea/pongam/KP1872467.html,39.7292,124.6044,Asia/Pyongyang,
hongwon,https://wetter.com/nordkorea/hongwon/KP2044050.html,40.0253,127.9558,Asia/Pyongyang,
sinuiju,https://wetter.com/nordkorea/sinuiju/KP2040893.html,40.1006,124.3981,Asia/Pyongyang,
yongbyon,https://wetter.com/nordkorea/yongbyon/KP1866453.html,39.8133,125.8042,Asia/Pyongyang,
chonjangjin-dong,https://wetter.com/nordkorea/chonjangjin-dong/KP1878257.html,38.9667,125.7667,Asia/Pyongyang,
ch-onggye-dong,https://wetter.com/nordkorea/ch-onggye-dong/KP1932425.html,39.0805,125.7696,Asia/Pyongyang,
pjoengjang,https://wetter.com/nordkorea/pjoengjang/KPXY00001.html,39.0339,125.7543,Asia/Pyongyang,
p-yongso-dong,https://wetter.com/nordkorea/p-yongso-dong/KP1932408.html,39.0833,125.7494,Asia/Pyongyang,
haejigi,https://wetter.com/nordkorea/haejigi/KP6270090.html,39.1414,125.6897,Asia/Pyongyang,
hansa-dong,https://wetter.com/nordkorea/hansa-dong/KP1932377.html,39.1081,125.7592,Asia/Pyongyang,
konnae-gol,https://wetter.com/nordkorea/konnae-gol/KP1949991.html,38.9294,126.0492,Asia/Pyongyang,
masik-tong,https://wetter.com/nordkorea/masik-tong/KP1889226.html,39.1578,125.7391,Asia/Pyongyang,
hangsong-dong,https://wetter.com/nordkorea/hangsong-dong/KP1877376.html,38.9886,125.9722,Asia/Pyongyang,
chung-dong,https://wetter.com/nordkorea/chung-dong/KP1877944.html,39.0039,125.7981,Asia/Pyongyang,
ach-iul,https://wetter.com/nordkorea/ach-iul/KP1949957.html,38.8472,126.0819,Asia/Pyongyang,
k-unhant-o-gol,https://wetter.com/nordkorea/k-unhant-o-gol/KP1931535.html,38.725,126.0594,Asia/Pyongyang,
kangdong-up,https://wetter.com/nordkorea/kangdong-up/KP1876153.html,39.1425,126.0961,Asia/Pyongyang,
munsin-dong,https://wetter.com/nordkorea/munsin-dong/KP1874165.html,39.0167,125.8,Asia/Pyongyang,
hasong-dong,https://wetter.com/nordkorea/hasong-dong/KP1950206.html,39.1385,126.0848,Asia/Pyongyang,
chunghwa,https://wetter.com/nordkorea/chunghwa/KP1877872.html,38.8639,125.8,Asia/Pyongyang,
kkok-kol,https://wetter.com/nordkorea/kkok-kol/KP1901943.html,39.1705,125.9938,Asia/Pyongyang,
pyon-ch-on,https://wetter.com/nordkorea/pyon-ch-on/KP1890229.html,38.795,126.1544,Asia/Pyongyang,
sakchu-up,https://wetter.com/nordkorea/sakchu-up/KP2041533.html,40.3894,125.0467,Asia/Pyongyang,
t-aha-ri,https://wetter.com/nordkorea/t-aha-ri/KP2040082.html,40.5422,125.4333,Asia/Pyongyang,
kujang-up,https://wetter.com/nordkorea/kujang-up/KP1875506.html,39.8672,126.0303,Asia/Pyongyang,
kanggye,https://wetter.com/nordkorea/kanggye/KP2043572.html,40.9695,126.5852,Asia/Pyongyang,
ha-dong,https://wetter.com/nordkorea/ha-dong/KP2044311.html,41.7264,126.9539,Asia/Pyongyang,
ch-iksan-dong,https://wetter.com/nordkorea/ch-iksan-dong/KP2049280.html,41.0497,126.2306,Asia/Pyongyang,
masol-li,https://wetter.com/nordkorea/masol-li/KP2042871.html,40.1625,126.3656,Asia/Pyongyang,
kuksa-dong,https://wetter.com/nordkorea/kuksa-dong/KP2049276.html,41.0056,126.1564,Asia/Pyongyang,
ongnyo-bong,https://wetter.com/nordkorea/ongnyo-bong/KP6270252.html,39.9703,125.8347,Asia/Pyongyang,
kalmagu,https://wetter.com/nordkorea/kalmagu/KP1876280.html,39.6447,125.4344,Asia/Pyongyang,
k-un-gol,https://wetter.com/nordkorea/k-un-gol/KP1875206.html,39.7869,124.9831,Asia/Pyongyang,
hambu-ri,https://wetter.com/nordkorea/hambu-ri/KP2044247.html,41.2358,126.5778,Asia/Pyongyang,
inp-ung-ni,https://wetter.com/nordkorea/inp-ung-ni/KP2049136.html,40.5983,125.6181,Asia/Pyongyang,
konjung-ni,https://wetter.com/nordkorea/konjung-ni/KP2043343.html,41.1606,126.3722,Asia/Pyongyang,
omoro-ri,https://wetter.com/nordkorea/omoro-ri/KP6282572.html,40.8683,126.5511,Asia/Pyongyang,
kumnim-ni,https://wetter.com/nordkorea/kumnim-ni/KP2043198.html,40.6769,125.5681,Asia/Pyongyang,
nahajung-dong,https://wetter.com/nordkorea/nahajung-dong/KP2055041.html,40.795,125.7067,Asia/Pyongyang,
ryongsangni,https://wetter.com/nordkorea/ryongsangni/KP2038974.html,40.4997,126.8706,Asia/Pyongyang,
chasong,https://wetter.com/nordkorea/chasong/KP2045005.html,41.4608,126.6414,Asia/Pyongyang,
sangwon-dong,https://wetter.com/nordkorea/sangwon-dong/KP6282691.html,40.7622,126.03,Asia/Pyongyang,
kaphyon-dong,https://wetter.com/nordkorea/kaphyon-dong/KP2054664.html,40.0767,126.2022,Asia/Pyongyang,
horye-ri,https://wetter.com/nordkorea/horye-ri/KP2044045.html,41.4939,126.6936,Asia/Pyongyang,
sabong,https://wetter.com/nordkorea/sabong/KP1870221.html,39.9639,124.4631,Asia/Pyongyang,
posan,https://wetter.com/nordkorea/posan/KP1872279.html,39.75,124.6167,Asia/Pyongyang,
pukha-ri,https://wetter.com/nordkorea/pukha-ri/KP6281725.html,40.0839,124.6564,Asia/Pyongyang,
sinch-on-dong,https://wetter.com/nordkorea/sinch-on-dong/KP1929261.html,39.1292,125.9831,Asia/Pyongyang,
homogi,https://wetter.com/nordkorea/homogi/KP2049068.html,40.5181,125.1053,Asia/Pyongyang,
kwaksan,https://wetter.com/nordkorea/kwaksan/KP1875054.html,39.6875,125.0828,Asia/Pyongyang,
naejuch-am,https://wetter.com/nordkorea/naejuch-am/KP2054687.html,40.0253,126.1975,Asia/Pyongyang,
okkang-ni,https://wetter.com/nordkorea/okkang-ni/KP2042326.html,40.3253,124.7352,Asia/Pyongyang,
onjong,https://wetter.com/nordkorea/onjong/KP6270280.html,39.7697,125.8869,Asia/Pyongyang,
chungch-am,https://wetter.com/nordkorea/chungch-am/KP6281072.html,40.1643,126.3685,Asia/Pyongyang,
chonch-on-dong,https://wetter.com/nordkorea/chonch-on-dong/KP6282544.html,40.7841,126.3041,Asia/Pyongyang,
ch-anghu-ri,https://wetter.com/nordkorea/ch-anghu-ri/KP2045141.html,40.5267,125.6608,Asia/Pyongyang,
konha-ri,https://wetter.com/nordkorea/konha-ri/KP2043353.html,41.1336,126.3525,Asia/Pyongyang,
hungju-dong,https://wetter.com/nordkorea/hungju-dong/KP2043983.html,40.9963,126.5476,Asia/Pyongyang,
hahwagol,https://wetter.com/nordkorea/hahwagol/KP2049258.html,40.6011,126.5175,Asia/Pyongyang,
kapchin-dong,https://wetter.com/nordkorea/kapchin-dong/KP6302245.html,40.6364,126.8731,Asia/Pyongyang,
hagaru-ri,https://wetter.com/nordkorea/hagaru-ri/KP2044294.html,40.386,127.2525,Asia/Pyongyang,
kusumi,https://wetter.com/nordkorea/kusumi/KP1966733.html,38.2181,126.5006,Asia/Pyongyang,
hamhung,https://wetter.com/nordkorea/hamhung/KP1877449.html,39.9183,127.5364,Asia/Pyongyang,
pyongp-unggol,https://wetter.com/nordkorea/pyongp-unggol/KP1889031.html,38.6642,127.3419,Asia/Pyongyang,
kap-yong-ni,https://wetter.com/nordkorea/kap-yong-ni/KP1876064.html,38.8973,127.9472,Asia/Pyongyang,
chudae-ri,https://wetter.com/nordkorea/chudae-ri/KP6273654.html,38.8997,127.9436,Asia/Pyongyang,
ha-dong,https://wetter.com/nordkorea/ha-dong/KP1877654.html,39.1436,127.5958,Asia/Pyongyang,
yugang-ni,https://wetter.com/nordkorea/yugang-ni/KP1865912.html,38.8768,126.4748,Asia/Pyongyang,
iltan-gol,https://wetter.com/nordkorea/iltan-gol/KP6272748.html,38.7578,127.7825,Asia/Pyongyang,
ch-olchom,https://wetter.com/nordkorea/ch-olchom/KP6272782.html,38.9119,127.7961,Asia/Pyongyang,
anbyon-up,https://wetter.com/nordkorea/anbyon-up/KP1879672.html,39.0425,127.5239,Asia/Pyongyang,
yul-tong,https://wetter.com/nordkorea/yul-tong/KP1865848.html,37.945,126.6389,Asia/Pyongyang,
ayang-ni,https://wetter.com/nordkorea/ayang-ni/KP1879544.html,38.2472,125.7948,Asia/Pyongyang,
ch-anumul,https://wetter.com/nordkorea/ch-anumul/KP1879026.html,37.9572,125.9775,Asia/Pyongyang,
yul-tong,https://wetter.com/nordkorea/yul-tong/KP1865846.html,38.8606,125.7372,Asia/Pyongyang,
kaesong,https://wetter.com/nordkorea/kaesong/KP1876373.html,37.9708,126.5544,Asia/Pyongyang,
changyon,https://wetter.com/nordkorea/changyon/KP1879029.html,38.2508,125.0961,Asia/Pyongyang,
hoeyang,https://wetter.com/nordkorea/hoeyang/KP1877148.html,38.7103,127.5983,Asia/Pyongyang,
yongjong,https://wetter.com/nordkorea/yongjong/KP1948035.html,38.2836,126.0392,Asia/Pyongyang,
unmun-dong,https://wetter.com/nordkorea/unmun-dong/KP6366987.html,38.985,126.7567,Asia/Pyongyang,
sogam-ni,https://wetter.com/nordkorea/sogam-ni/KP1870138.html,39.0483,126.6683,Asia/Pyongyang,
hukkyo-ri,https://wetter.com/nordkorea/hukkyo-ri/KP1877046.html,38.7986,125.7919,Asia/Pyongyang,
sariwon,https://wetter.com/nordkorea/sariwon/KP1870883.html,38.5072,125.7558,Asia/Pyongyang,
pol-mal,https://wetter.com/nordkorea/pol-mal/KP1890663.html,38.0634,126.5347,Asia/Pyongyang,
sinyang,https://wetter.com/nordkorea/sinyang/KP1925878.html,38.4561,125.7533,Asia/Pyongyang,
sogi,https://wetter.com/nordkorea/sogi/KP1925899.html,38.4686,125.7319,Asia/Pyongyang,
munch-on,https://wetter.com/nordkorea/munch-on/KP1890903.html,38.3647,126.0731,Asia/Pyongyang,
much-o-dong,https://wetter.com/nordkorea/much-o-dong/KP1931367.html,38.3002,126.5965,Asia/Pyongyang,
kumi-dong,https://wetter.com/nordkorea/kumi-dong/KP1890751.html,38.0761,126.7489,Asia/Pyongyang,
oeam-ni,https://wetter.com/nordkorea/oeam-ni/KP6366402.html,38.695,126.4369,Asia/Pyongyang,
sinmak,https://wetter.com/nordkorea/sinmak/KP1870434.html,38.4167,126.2333,Asia/Pyongyang,
oman-gol,https://wetter.com/nordkorea/oman-gol/KP1949000.html,38.1478,126.6042,Asia/Pyongyang,
wolge,https://wetter.com/nordkorea/wolge/KP6366904.html,38.8539,126.7051,Asia/Pyongyang,
tokchon-dong,https://wetter.com/nordkorea/tokchon-dong/KP1926550.html,38.2558,125.99,Asia/Pyongyang,
soeul,https://wetter.com/nordkorea/soeul/KP1948198.html,38.3631,126.2639,Asia/Pyongyang,
songnim-ni,https://wetter.com/nordkorea/songnim-ni/KP1869446.html,38.7635,125.641,Asia/Pyongyang,
oeam-dong,https://wetter.com/nordkorea/oeam-dong/KP1873364.html,38.4666,125.4672,Asia/Pyongyang,
oemoe,https://wetter.com/nordkorea/oemoe/KP1947409.html,38.18,125.8689,Asia/Pyongyang,
myongch-on-dong,https://wetter.com/nordkorea/myongch-on-dong/KP1874106.html,39.0,125.7333,Asia/Pyongyang,
chinhae-ri,https://wetter.com/nordkorea/chinhae-ri/KP1878803.html,38.0142,125.2628,Asia/Pyongyang,
polsaet-o,https://wetter.com/nordkorea/polsaet-o/KP1872501.html,37.9939,125.2122,Asia/Pyongyang,
pyoksong-up,https://wetter.com/nordkorea/pyoksong-up/KP1871967.html,38.0475,125.5567,Asia/Pyongyang,
haeal-li,https://wetter.com/nordkorea/haeal-li/KP1872949.html,38.2625,124.9158,Asia/Pyongyang,
pol-mal,https://wetter.com/nordkorea/pol-mal/KP1872512.html,37.9581,125.1944,Asia/Pyongyang,
polch-i-dong,https://wetter.com/nordkorea/polch-i-dong/KP1872516.html,38.5325,124.7925,Asia/Pyongyang,
song-ch-on,https://wetter.com/nordkorea/song-ch-on/KP1869687.html,38.0781,125.9689,Asia/Pyongyang,
suryeji,https://wetter.com/nordkorea/suryeji/KP1868952.html,37.9639,126.2717,Asia/Pyongyang,
tolmisan,https://wetter.com/nordkorea/tolmisan/KP1868018.html,38.5733,125.3572,Asia/Pyongyang,
uttu-gol,https://wetter.com/nordkorea/uttu-gol/KP1890558.html,38.1647,126.0644,Asia/Pyongyang,
uusal-li,https://wetter.com/nordkorea/uusal-li/KP1947595.html,38.0747,126.1683,Asia/Pyongyang,
wolgi,https://wetter.com/nordkorea/wolgi/KP1947449.html,38.0428,125.9953,Asia/Pyongyang,
yonandari,https://wetter.com/nordkorea/yonandari/KP1890442.html,38.0433,126.2739,Asia/Pyongyang,
yonan-up,https://wetter.com/nordkorea/yonan-up/KP1866569.html,37.9089,126.1611,Asia/Pyongyang,
anam,https://wetter.com/nordkorea/anam/KP1931886.html,38.6576,128.3373,Asia/Pyongyang,
yongch-ol-li,https://wetter.com/nordkorea/yongch-ol-li/KP6407552.html,38.6375,125.5608,Asia/Pyongyang,
namhae-ri,https://wetter.com/nordkorea/namhae-ri/KP1873802.html,37.85,125.3244,Asia/Pyongyang,
habup-yong-ni,https://wetter.com/nordkorea/habup-yong-ni/KP6367207.html,38.8954,127.4634,Asia/Pyongyang,
manch-on-dong,https://wetter.com/nordkorea/manch-on-dong/KP1874576.html,38.0664,125.5289,Asia/Pyongyang,
polma-ri,https://wetter.com/nordkorea/polma-ri/KP1883149.html,38.3591,125.3834,Asia/Pyongyang,
p-alp-an-dong,https://wetter.com/nordkorea/p-alp-an-dong/KP1926894.html,38.4699,125.6266,Asia/Pyongyang,
much-uji,https://wetter.com/nordkorea/much-uji/KP1874317.html,37.8286,125.6392,Asia/Pyongyang,
hansu-dong,https://wetter.com/nordkorea/hansu-dong/KP1877348.html,38.1808,125.3074,Asia/Pyongyang,
kok-ch-on,https://wetter.com/nordkorea/kok-ch-on/KP1875800.html,38.3577,125.0684,Asia/Pyongyang,
hangso,https://wetter.com/nordkorea/hangso/KP1877377.html,37.7,125.35,Asia/Pyongyang,
kuju-dong,https://wetter.com/nordkorea/kuju-dong/KP1875496.html,38.14,125.8828,Asia/Pyongyang,
chaeryong-up,https://wetter.com/nordkorea/chaeryong-up/KP1879487.html,38.3992,125.6156,Asia/Pyongyang,
haeju,https://wetter.com/nordkorea/haeju/KP1877615.html,38.0406,125.7147,Asia/Pyongyang,
milmok-kol,https://wetter.com/nordkorea/milmok-kol/KP1874434.html,37.8551,125.2872,Asia/Pyongyang,
kusam-ni,https://wetter.com/nordkorea/kusam-ni/KP1875124.html,37.9172,125.9431,Asia/Pyongyang,
paemae-maul,https://wetter.com/nordkorea/paemae-maul/KP1926660.html,38.3936,125.6693,Asia/Pyongyang,
kiril-li,https://wetter.com/nordkorea/kiril-li/KP1875961.html,37.9203,126.127,Asia/Pyongyang,
sungt-am-ni,https://wetter.com/nordkorea/sungt-am-ni/KP1966472.html,38.2801,125.0508,Asia/Pyongyang,
kyongt-an,https://wetter.com/nordkorea/kyongt-an/KP1874772.html,38.1358,124.7211,Asia/Pyongyang,
ongjin,https://wetter.com/nordkorea/ongjin/KP1873172.html,37.9347,125.3619,Asia/Pyongyang,
poriam,https://wetter.com/nordkorea/poriam/KP1872288.html,38.0574,125.8004,Asia/Pyongyang,
noedong-ni,https://wetter.com/nordkorea/noedong-ni/KP6302600.html,40.4148,127.305,Asia/Pyongyang,
haam-dong,https://wetter.com/nordkorea/haam-dong/KP1891477.html,38.5514,126.6164,Asia/Pyongyang,
miram-dong,https://wetter.com/nordkorea/miram-dong/KP1890833.html,38.2356,126.3836,Asia/Pyongyang,
samho-rodongjagu,https://wetter.com/nordkorea/samho-rodongjagu/KP1871484.html,39.9475,127.8711,Asia/Pyongyang,
saech-on,https://wetter.com/nordkorea/saech-on/KP6273217.html,39.8783,127.2531,Asia/Pyongyang,
soksa-ri,https://wetter.com/nordkorea/soksa-ri/KP2040716.html,40.6811,127.2717,Asia/Pyongyang,
sinsang-ni,https://wetter.com/nordkorea/sinsang-ni/KP1932058.html,39.6499,127.4073,Asia/Pyongyang,
uha-ri,https://wetter.com/nordkorea/uha-ri/KP6302571.html,40.1933,127.5025,Asia/Pyongyang,
tokkigol,https://wetter.com/nordkorea/tokkigol/KP1932124.html,39.6037,127.2948,Asia/Pyongyang,
songik-kol,https://wetter.com/nordkorea/songik-kol/KP6302733.html,40.2131,128.0069,Asia/Pyongyang,
wonp-ung-ni,https://wetter.com/nordkorea/wonp-ung-ni/KP6302576.html,40.1619,127.735,Asia/Pyongyang,
pongbau,https://wetter.com/nordkorea/pongbau/KP1872517.html,38.7892,127.0342,Asia/Pyongyang,
umi-ri,https://wetter.com/nordkorea/umi-ri/KP1867419.html,38.3956,126.8064,Asia/Pyongyang,
tokhung-ni,https://wetter.com/nordkorea/tokhung-ni/KP1868133.html,39.34,127.3511,Asia/Pyongyang,
kosan,https://wetter.com/nordkorea/kosan/KP1875632.html,38.8558,127.4181,Asia/Pyongyang,
samsa-ri,https://wetter.com/nordkorea/samsa-ri/KP1871420.html,38.3367,127.2219,Asia/Pyongyang,
unhung-ni,https://wetter.com/nordkorea/unhung-ni/KP1867300.html,39.6628,126.7147,Asia/Pyongyang,
yangji,https://wetter.com/nordkorea/yangji/KP2049841.html,40.1762,128.2629,Asia/Pyongyang,
sambong-ni,https://wetter.com/nordkorea/sambong-ni/KP6302532.html,40.0333,127.6275,Asia/Pyongyang,
pohangch-on,https://wetter.com/nordkorea/pohangch-on/KP2051849.html,40.4717,128.9575,Asia/Pyongyang,
mun-ch-on,https://wetter.com/nordkorea/mun-ch-on/KP2049723.html,40.0392,128.1817,Asia/Pyongyang,
chunghung-ni,https://wetter.com/nordkorea/chunghung-ni/KP6567596.html,39.5059,127.4807,Asia/Pyongyang,
kolnae-dong,https://wetter.com/nordkorea/kolnae-dong/KP1952684.html,39.4781,127.2153,Asia/Pyongyang,
kowon-up,https://wetter.com/nordkorea/kowon-up/KP1875588.html,39.4381,127.2431,Asia/Pyongyang,
okp-o,https://wetter.com/nordkorea/okp-o/KP2051778.html,40.3622,128.72,Asia/Pyongyang,
kangsang-dong,https://wetter.com/nordkorea/kangsang-dong/KP6302488.html,40.0078,127.6975,Asia/Pyongyang,
p-ungyang-ni,https://wetter.com/nordkorea/p-ungyang-ni/KP1952566.html,39.475,127.2639,Asia/Pyongyang,
injonggol,https://wetter.com/nordkorea/injonggol/KP6367022.html,39.4296,126.9923,Asia/Pyongyang,
sadukkori,https://wetter.com/nordkorea/sadukkori/KP6400205.html,40.9794,127.5486,Asia/Pyongyang,
okp-o-dong,https://wetter.com/nordkorea/okp-o-dong/KP1888778.html,39.4478,127.1922,Asia/Pyongyang,
ch-agadok,https://wetter.com/nordkorea/ch-agadok/KP1888934.html,39.4184,126.9016,Asia/Pyongyang,
soetkol,https://wetter.com/nordkorea/soetkol/KP1888957.html,39.4604,126.9853,Asia/Pyongyang,
t-ongp-a-dong,https://wetter.com/nordkorea/t-ongp-a-dong/KP2039751.html,40.5275,128.0697,Asia/Pyongyang,
hungnam,https://wetter.com/nordkorea/hungnam/KP1877030.html,39.842,127.6321,Asia/Pyongyang,
sinhung-dong,https://wetter.com/nordkorea/sinhung-dong/KP2046783.html,41.0594,128.7403,Asia/Pyongyang,
polch-on,https://wetter.com/nordkorea/polch-on/KP6273269.html,39.8514,127.4147,Asia/Pyongyang,
yondong-ni,https://wetter.com/nordkorea/yondong-ni/KP1866518.html,39.5242,127.4917,Asia/Pyongyang,
siphyon-dong,https://wetter.com/nordkorea/siphyon-dong/KP1889683.html,38.3903,126.9686,Asia/Pyongyang,
tarupkol,https://wetter.com/nordkorea/tarupkol/KP6279189.html,38.7789,127.0758,Asia/Pyongyang,
sambakkae,https://wetter.com/nordkorea/sambakkae/KP6367414.html,39.2258,127.1984,Asia/Pyongyang,
anak,https://wetter.com/nordkorea/anak/KP1879682.html,38.5108,125.4942,Asia/Pyongyang,
changch-on-dong,https://wetter.com/nordkorea/changch-on-dong/KP1891171.html,38.4886,126.2058,Asia/Pyongyang,
kallinyoul,https://wetter.com/nordkorea/kallinyoul/KP1890800.html,38.1236,126.4453,Asia/Pyongyang,
han-gu-dong,https://wetter.com/nordkorea/han-gu-dong/KP1948152.html,38.35,126.0042,Asia/Pyongyang,
kaphyol-li,https://wetter.com/nordkorea/kaphyol-li/KP1925900.html,38.4771,125.7297,Asia/Pyongyang,
hwangju-up,https://wetter.com/nordkorea/hwangju-up/KP1876873.html,38.6703,125.7761,Asia/Pyongyang,
hwangmae-dong,https://wetter.com/nordkorea/hwangmae-dong/KP1876871.html,37.8419,126.6181,Asia/Pyongyang,
chung-gol,https://wetter.com/nordkorea/chung-gol/KP1925897.html,38.4639,125.7164,Asia/Pyongyang,
ich-un-gol,https://wetter.com/nordkorea/ich-un-gol/KP1890655.html,38.0317,126.4942,Asia/Pyongyang,
hugam,https://wetter.com/nordkorea/hugam/KP1949834.html,38.9253,126.1894,Asia/Pyongyang,
chi-dong,https://wetter.com/nordkorea/chi-dong/KP1878934.html,37.8758,126.5794,Asia/Pyongyang,
norumegi-dong,https://wetter.com/nordkorea/norumegi-dong/KP1879230.html,37.9003,126.5658,Asia/Pyongyang,
koksan-up,https://wetter.com/nordkorea/koksan-up/KP1875790.html,38.7819,126.6664,Asia/Pyongyang,
kommori-dong,https://wetter.com/nordkorea/kommori-dong/KP1888484.html,39.0856,126.6817,Asia/Pyongyang,
malme,https://wetter.com/nordkorea/malme/KP1874590.html,37.8644,126.5672,Asia/Pyongyang,
nungwol-li,https://wetter.com/nordkorea/nungwol-li/KP1927303.html,38.8192,127.9686,Asia/Pyongyang,
kkoppat,https://wetter.com/nordkorea/kkoppat/KP1948076.html,38.2607,126.19,Asia/Pyongyang,
pok-kol,https://wetter.com/nordkorea/pok-kol/KP1931788.html,38.5486,127.9708,Asia/Pyongyang,
kappau-ri,https://wetter.com/nordkorea/kappau-ri/KP1948463.html,38.4458,127.3528,Asia/Pyongyang,
panggogae-ri,https://wetter.com/nordkorea/panggogae-ri/KP1872737.html,39.2633,127.1167,Asia/Pyongyang,
yongdong-ni,https://wetter.com/nordkorea/yongdong-ni/KP2039140.html,40.0536,127.8931,Asia/Pyongyang,
yuktae-dong,https://wetter.com/nordkorea/yuktae-dong/KP2038854.html,40.0247,128.1597,Asia/Pyongyang,
t-ongch-on-up,https://wetter.com/nordkorea/t-ongch-on-up/KP1867927.html,38.9539,127.8917,Asia/Pyongyang,
sinip-kol,https://wetter.com/nordkorea/sinip-kol/KP1888741.html,38.9822,127.0372,Asia/Pyongyang,
sadong-ni,https://wetter.com/nordkorea/sadong-ni/KP1871807.html,38.6094,127.8158,Asia/Pyongyang,
igu,https://wetter.com/nordkorea/igu/KP1927035.html,38.6281,127.1819,Asia/Pyongyang,
samnae,https://wetter.com/nordkorea/samnae/KP1871446.html,39.3506,127.2333,Asia/Pyongyang,
yonggwang-up,https://wetter.com/nordkorea/yonggwang-up/KP2042249.html,40.0183,127.4547,Asia/Pyongyang,
tonyom-ni,https://wetter.com/nordkorea/tonyom-ni/KP6367407.html,39.0913,127.1224,Asia/Pyongyang,
panganmol,https://wetter.com/nordkorea/panganmol/KP1931132.html,38.2818,126.9687,Asia/Pyongyang,
t-oet-al-li,https://wetter.com/nordkorea/t-oet-al-li/KP1868262.html,38.3658,126.8871,Asia/Pyongyang,
chigong-ni,https://wetter.com/nordkorea/chigong-ni/KP1878920.html,38.8275,127.8547,Asia/Pyongyang,
sint-al-li,https://wetter.com/nordkorea/sint-al-li/KP1931414.html,39.0381,127.771,Asia/Pyongyang,
polmal,https://wetter.com/nordkorea/polmal/KP1889936.html,38.3431,126.9558,Asia/Pyongyang,
ich-on-up,https://wetter.com/nordkorea/ich-on-up/KP1876672.html,38.4889,126.8836,Asia/Pyongyang,
sot-pong,https://wetter.com/nordkorea/sot-pong/KP1949948.html,38.8589,126.0025,Asia/Pyongyang,
song-dong,https://wetter.com/nordkorea/song-dong/KP6305399.html,42.3927,129.6406,Asia/Pyongyang,
changwol-tong,https://wetter.com/nordkorea/changwol-tong/KP1879039.html,38.8031,125.5636,Asia/Pyongyang,
utkal-gol,https://wetter.com/nordkorea/utkal-gol/KP1890035.html,38.9792,126.0333,Asia/Pyongyang,
yonghung-dong,https://wetter.com/nordkorea/yonghung-dong/KP1866305.html,39.0742,125.7617,Asia/Pyongyang,
yongch-ol-li,https://wetter.com/nordkorea/yongch-ol-li/KP1866430.html,39.2042,125.9017,Asia/Pyongyang,
changno-dong,https://wetter.com/nordkorea/changno-dong/KP2045097.html,42.4952,130.4506,Asia/Pyongyang,
yonam-ni,https://wetter.com/nordkorea/yonam-ni/KP1932405.html,39.0394,125.7964,Asia/Pyongyang,
twippol,https://wetter.com/nordkorea/twippol/KP1889236.html,39.1342,125.6928,Asia/Pyongyang,
toltung,https://wetter.com/nordkorea/toltung/KP1902234.html,38.8664,125.9625,Asia/Pyongyang,
t-aegam-ni,https://wetter.com/nordkorea/t-aegam-ni/KP1868791.html,39.2515,125.6958,Asia/Pyongyang,
chongsang-dong,https://wetter.com/nordkorea/chongsang-dong/KP2044722.html,41.0108,126.3475,Asia/Pyongyang,
sungho-1-tong,https://wetter.com/nordkorea/sungho-1-tong/KP1868998.html,38.9914,125.9778,Asia/Pyongyang,
sojae-dong,https://wetter.com/nordkorea/sojae-dong/KP1870012.html,39.0444,125.7119,Asia/Pyongyang,
pukkyo-dong,https://wetter.com/nordkorea/pukkyo-dong/KP1873918.html,39.0639,125.7158,Asia/Pyongyang,
chonch-on,https://wetter.com/nordkorea/chonch-on/KP2038818.html,40.6858,126.4592,Asia/Pyongyang,
sunan,https://wetter.com/nordkorea/sunan/KP1869021.html,39.2032,125.6931,Asia/Pyongyang,
mangil-li,https://wetter.com/nordkorea/mangil-li/KP1874552.html,38.9794,125.6323,Asia/Pyongyang,
ssukkol,https://wetter.com/nordkorea/ssukkol/KP1869146.html,38.9947,125.9344,Asia/Pyongyang,
sonbau,https://wetter.com/nordkorea/sonbau/KP1869755.html,38.9639,125.8458,Asia/Pyongyang,
p-i-ch-on,https://wetter.com/nordkorea/p-i-ch-on/KP1888283.html,39.0291,126.3094,Asia/Pyongyang,
kudammal,https://wetter.com/nordkorea/kudammal/KP6366584.html,39.3979,126.3582,Asia/Pyongyang,
sinanju,https://wetter.com/nordkorea/sinanju/KP1870742.html,39.5981,125.6097,Asia/Pyongyang,
mun-ch-on,https://wetter.com/nordkorea/mun-ch-on/KP6269743.html,39.4856,125.9644,Asia/Pyongyang,
songu-dong,https://wetter.com/nordkorea/songu-dong/KP1929355.html,39.2192,125.9653,Asia/Pyongyang,
oedong-ni,https://wetter.com/nordkorea/oedong-ni/KP1873350.html,39.5778,126.0731,Asia/Pyongyang,
sokchong-ni,https://wetter.com/nordkorea/sokchong-ni/KP1869957.html,38.8028,125.4756,Asia/Pyongyang,
palbong,https://wetter.com/nordkorea/palbong/KP1889155.html,39.0175,125.5561,Asia/Pyongyang,
pyongyong-dong,https://wetter.com/nordkorea/pyongyong-dong/KP1871855.html,39.5428,125.4425,Asia/Pyongyang,
p-yongch-ang,https://wetter.com/nordkorea/p-yongch-ang/KP1889588.html,39.3606,126.4894,Asia/Pyongyang,
somdae,https://wetter.com/nordkorea/somdae/KP1892366.html,39.7683,126.0942,Asia/Pyongyang,
namp-o,https://wetter.com/nordkorea/namp-o/KP1873757.html,38.7375,125.4078,Asia/Pyongyang,
kalbat,https://wetter.com/nordkorea/kalbat/KP2043630.html,42.445,130.4403,Asia/Pyongyang,
sil-li,https://wetter.com/nordkorea/sil-li/KP1870413.html,39.4947,125.4736,Asia/Pyongyang,
heoryongoe-dong,https://wetter.com/nordkorea/heoryongoe-dong/KP2044096.html,40.9528,126.5772,Asia/Pyongyang,
ch-anghwa-dong,https://wetter.com/nordkorea/ch-anghwa-dong/KP6305487.html,42.247,130.3292,Asia/Pyongyang,
andol-li,https://wetter.com/nordkorea/andol-li/KP6302183.html,40.445,126.8203,Asia/Pyongyang,
sunch-on,https://wetter.com/nordkorea/sunch-on/KP1869012.html,39.4317,125.9328,Asia/Pyongyang,
p-yongch-on-dong,https://wetter.com/nordkorea/p-yongch-on-dong/KP1871939.html,38.9833,125.7167,Asia/Pyongyang,
sangsong-ni,https://wetter.com/nordkorea/sangsong-ni/KP1871028.html,39.1694,126.8856,Asia/Pyongyang,
ssangp-o,https://wetter.com/nordkorea/ssangp-o/KP1952239.html,39.1844,126.7983,Asia/Pyongyang,
iram-ni,https://wetter.com/nordkorea/iram-ni/KP1876473.html,39.2125,126.8553,Asia/Pyongyang,
