City,URL,Latitude,Longitude,Timezone,Error
ak-dyube,https://wetter.com/kirgisistan/ak-dyube/KG1528886.html,42.4576,78.1077,Asia/Bishkek,
nizhniy-norus,https://wetter.com/kirgisistan/nizhniy-norus/KG1540667.html,42.9265,74.7412,Asia/Bishkek,
murake,https://wetter.com/kirgisistan/murake/KG1527606.html,42.751,74.0184,Asia/Bishkek,
leninskoye,https://wetter.com/kirgisistan/leninskoye/KG1540665.html,42.9706,74.6625,Asia/Bishkek,
kemin,https://wetter.com/kirgisistan/kemin/KG1528606.html,42.7861,75.6917,Asia/Bishkek,
lebedinovka,https://wetter.com/kirgisistan/lebedinovka/KG1527690.html,42.8845,74.6782,Asia/Bishkek,
krasnaya-rechka,https://wetter.com/kirgisistan/krasnaya-rechka/KG1527826.html,42.9014,74.9765,Asia/Bishkek,
nizhniy-orok,https://wetter.com/kirgisistan/nizhniy-orok/KG1540659.html,42.8106,74.534,Asia/Bishkek,
sokuluk,https://wetter.com/kirgisistan/sokuluk/KG1527360.html,42.854,74.3026,Asia/Bishkek,
schopokow,https://wetter.com/kirgisistan/schopokow/KG1527370.html,42.8547,74.3422,Asia/Bishkek,
tash-doeboe,https://wetter.com/kirgisistan/tash-doeboe/KG1527257.html,42.7214,74.5716,Asia/Bishkek,
ak-suu,https://wetter.com/kirgisistan/ak-suu/KG1527232.html,42.4995,78.527,Asia/Bishkek,
akulen,https://wetter.com/kirgisistan/akulen/KG1528882.html,42.3481,76.1658,Asia/Bishkek,
balyktschy,https://wetter.com/kirgisistan/balyktschy/KG1527004.html,42.4602,76.1871,Asia/Bishkek,
tegirmenti,https://wetter.com/kirgisistan/tegirmenti/KG1527245.html,42.7661,76.1588,Asia/Bishkek,
dzhan-bulak,https://wetter.com/kirgisistan/dzhan-bulak/KG1528419.html,42.4445,78.2543,Asia/Bishkek,
ak-say,https://wetter.com/kirgisistan/ak-say/KG1528925.html,42.1341,76.8366,Asia/Bishkek,
barskoon,https://wetter.com/kirgisistan/barskoon/KG1528746.html,42.1579,77.6036,Asia/Bishkek,
shamshy,https://wetter.com/kirgisistan/shamshy/KG1527393.html,42.6981,75.363,Asia/Bishkek,
kek-dzhar,https://wetter.com/kirgisistan/kek-dzhar/KG1540672.html,42.8074,74.6497,Asia/Bishkek,
sosnovka,https://wetter.com/kirgisistan/sosnovka/KG1527351.html,42.6371,73.8961,Asia/Bishkek,
syn-tash,https://wetter.com/kirgisistan/syn-tash/KG1527313.html,42.7031,75.0605,Asia/Bishkek,
verkhniy-orok,https://wetter.com/kirgisistan/verkhniy-orok/KG1540660.html,42.8054,74.5217,Asia/Bishkek,
tokmok,https://wetter.com/kirgisistan/tokmok/KG1527199.html,42.8419,75.3015,Asia/Bishkek,
vostok,https://wetter.com/kirgisistan/vostok/KG1540671.html,42.905,74.6742,Asia/Bishkek,
romanovka,https://wetter.com/kirgisistan/romanovka/KG1527484.html,42.8667,74.3333,Asia/Bishkek,
sadovoye,https://wetter.com/kirgisistan/sadovoye/KG1540670.html,42.9311,74.6671,Asia/Bishkek,
selektsionnoye,https://wetter.com/kirgisistan/selektsionnoye/KG1540658.html,42.8345,74.5208,Asia/Bishkek,
ken-bulun,https://wetter.com/kirgisistan/ken-bulun/KG1527971.html,42.8727,75.1318,Asia/Bishkek,
burana,https://wetter.com/kirgisistan/burana/KG1528624.html,42.7503,75.2695,Asia/Bishkek,
komsomol-skoye,https://wetter.com/kirgisistan/komsomol-skoye/KG1540651.html,42.9462,74.4711,Asia/Bishkek,
bokombayevskoye,https://wetter.com/kirgisistan/bokombayevskoye/KG1528666.html,42.1177,76.9933,Asia/Bishkek,
kant,https://wetter.com/kirgisistan/kant/KG1528193.html,42.8911,74.8508,Asia/Bishkek,
kaindy,https://wetter.com/kirgisistan/kaindy/KG1528234.html,42.8247,73.6759,Asia/Bishkek,
pokrovka,https://wetter.com/kirgisistan/pokrovka/KG1527496.html,42.7362,71.6098,Asia/Bishkek,
boroldoy,https://wetter.com/kirgisistan/boroldoy/KG1528650.html,42.7904,75.8562,Asia/Bishkek,
ak-suu,https://wetter.com/kirgisistan/ak-suu/KG1528906.html,42.8092,74.1001,Asia/Bishkek,
romanovka,https://wetter.com/kirgisistan/romanovka/KG1527485.html,42.4665,71.9358,Asia/Bishkek,
belovodskoye,https://wetter.com/kirgisistan/belovodskoye/KG1528702.html,42.8294,74.1083,Asia/Bishkek,
ivanovo-alekseyevka,https://wetter.com/kirgisistan/ivanovo-alekseyevka/KG1528253.html,42.5469,72.2092,Asia/Bishkek,
kyzyl-adyr,https://wetter.com/kirgisistan/kyzyl-adyr/KG1527919.html,42.6198,71.5891,Asia/Bishkek,
kopuro-bazar,https://wetter.com/kirgisistan/kopuro-bazar/KG1527960.html,42.4809,72.9551,Asia/Bishkek,
talas,https://wetter.com/kirgisistan/talas/KG1527299.html,42.5228,72.2427,Asia/Bishkek,
ivanovka,https://wetter.com/kirgisistan/ivanovka/KG1528252.html,42.8878,75.085,Asia/Bishkek,
birikken,https://wetter.com/kirgisistan/birikken/KG1528680.html,42.7013,75.1465,Asia/Bishkek,
karasu,https://wetter.com/kirgisistan/karasu/KG1528092.html,40.5623,73.7332,Asia/Bishkek,
jangy-jer,https://wetter.com/kirgisistan/jangy-jer/KZ1524421.html,43.109,74.3812,Asia/Bishkek,
bakai-ata,https://wetter.com/kirgisistan/bakai-ata/KG1527688.html,42.493,71.9236,Asia/Bishkek,
sheker,https://wetter.com/kirgisistan/sheker/KG1527379.html,42.5479,71.1578,Asia/Bishkek,
kolba,https://wetter.com/kirgisistan/kolba/KG1527868.html,42.4514,72.3984,Asia/Bishkek,
aral,https://wetter.com/kirgisistan/aral/KG1528836.html,42.5368,72.6605,Asia/Bishkek,
kara-doeboe,https://wetter.com/kirgisistan/kara-doeboe/KG1528056.html,42.7857,75.4477,Asia/Bishkek,
chuy,https://wetter.com/kirgisistan/chuy/KG1527338.html,42.8197,75.2823,Asia/Bishkek,
chat-kel,https://wetter.com/kirgisistan/chat-kel/KG1528571.html,42.9398,74.3478,Asia/Bishkek,
alamedin,https://wetter.com/kirgisistan/alamedin/KG1528869.html,42.9065,74.6365,Asia/Bishkek,
ak-dzhol,https://wetter.com/kirgisistan/ak-dzhol/KG1540652.html,42.9413,74.4894,Asia/Bishkek,
kamyshanovka,https://wetter.com/kirgisistan/kamyshanovka/KZ1523558.html,43.218,74.2362,Asia/Bishkek,
kara-balta,https://wetter.com/kirgisistan/kara-balta/KG1528182.html,42.8142,73.8481,Asia/Bishkek,
krasnyy-most,https://wetter.com/kirgisistan/krasnyy-most/KG1527822.html,42.5985,75.8141,Asia/Bishkek,
kadzhi-say,https://wetter.com/kirgisistan/kadzhi-say/KG1528241.html,42.1411,77.1785,Asia/Bishkek,
oytal,https://wetter.com/kirgisistan/oytal/KG1527516.html,42.7416,78.0154,Asia/Bishkek,
frunze,https://wetter.com/kirgisistan/frunze/KG1528335.html,42.7675,78.1857,Asia/Bishkek,
ak-tal,https://wetter.com/kirgisistan/ak-tal/KG1528904.html,41.4137,75.0545,Asia/Bishkek,
yaryktash,https://wetter.com/kirgisistan/yaryktash/KG1527013.html,41.7686,72.0875,Asia/Bishkek,
boz-beshik,https://wetter.com/kirgisistan/boz-beshik/KG1528642.html,42.4325,77.9515,Asia/Bishkek,
torkent,https://wetter.com/kirgisistan/torkent/KG1527179.html,41.8364,73.1472,Asia/Bishkek,
totiya,https://wetter.com/kirgisistan/totiya/KG1527141.html,40.8741,72.9563,Asia/Bishkek,
tash-kumyr,https://wetter.com/kirgisistan/tash-kumyr/KG1527260.html,41.3461,72.2171,Asia/Bishkek,
syny,https://wetter.com/kirgisistan/syny/KG1527312.html,41.6164,72.0552,Asia/Bishkek,
mayli-say,https://wetter.com/kirgisistan/mayli-say/KG1527647.html,41.253,72.4599,Asia/Bishkek,
toktogul,https://wetter.com/kirgisistan/toktogul/KG1538648.html,41.8744,72.9419,Asia/Bishkek,
mundus,https://wetter.com/kirgisistan/mundus/KG1527657.html,41.441,71.9279,Asia/Bishkek,
suzak,https://wetter.com/kirgisistan/suzak/KG1527317.html,40.8982,72.9048,Asia/Bishkek,
ak-kuduk,https://wetter.com/kirgisistan/ak-kuduk/KG1528936.html,41.4892,75.343,Asia/Bishkek,
kazarman,https://wetter.com/kirgisistan/kazarman/KG1528005.html,41.4045,74.0283,Asia/Bishkek,
kyzyl-kyya,https://wetter.com/kirgisistan/kyzyl-kyya/KG1528159.html,41.1336,72.3792,Asia/Bishkek,
kara-jygach,https://wetter.com/kirgisistan/kara-jygach/KG1527728.html,41.7906,73.282,Asia/Bishkek,
kyzyl-tokoy,https://wetter.com/kirgisistan/kyzyl-tokoy/KG1527704.html,41.3847,71.3281,Asia/Bishkek,
massy,https://wetter.com/kirgisistan/massy/KG1527689.html,41.0601,72.6329,Asia/Bishkek,
kolot,https://wetter.com/kirgisistan/kolot/KG1527805.html,40.9833,72.7774,Asia/Bishkek,
kashka-terek,https://wetter.com/kirgisistan/kashka-terek/KG1528033.html,41.1423,73.1418,Asia/Bishkek,
kerben,https://wetter.com/kirgisistan/kerben/KG1528052.html,41.494,71.7583,Asia/Bishkek,
karacha,https://wetter.com/kirgisistan/karacha/KG1528167.html,41.0851,72.8115,Asia/Bishkek,
kel,https://wetter.com/kirgisistan/kel/KG1527977.html,41.9269,72.3556,Asia/Bishkek,
kotschkor-ata,https://wetter.com/kirgisistan/kotschkor-ata/KG1527903.html,41.0371,72.4832,Asia/Bishkek,
kurpak-korgon,https://wetter.com/kirgisistan/kurpak-korgon/KG1527500.html,40.9655,72.6501,Asia/Bishkek,
kurnsay,https://wetter.com/kirgisistan/kurnsay/KG1527768.html,41.4867,72.3385,Asia/Bishkek,
jangy-jol,https://wetter.com/kirgisistan/jangy-jol/KG1528416.html,41.8832,72.9159,Asia/Bishkek,
ak-bulun,https://wetter.com/kirgisistan/ak-bulun/KG1540833.html,41.4503,76.2835,Asia/Bishkek,
ak-tala,https://wetter.com/kirgisistan/ak-tala/KG1528087.html,42.1819,75.3218,Asia/Bishkek,
naryn,https://wetter.com/kirgisistan/naryn/KG1527592.html,41.4287,75.9911,Asia/Bishkek,
dyubell,https://wetter.com/kirgisistan/dyubell/KG1528437.html,41.4488,76.2401,Asia/Bishkek,
kokdzhar,https://wetter.com/kirgisistan/kokdzhar/KG1527992.html,42.184,75.6516,Asia/Bishkek,
orto-nura,https://wetter.com/kirgisistan/orto-nura/KG1540832.html,41.4533,76.2094,Asia/Bishkek,
kyzyloy,https://wetter.com/kirgisistan/kyzyloy/KG1527715.html,41.9521,74.1632,Asia/Bishkek,
tash-bashat,https://wetter.com/kirgisistan/tash-bashat/KG1540834.html,41.4638,76.3933,Asia/Bishkek,
ukok,https://wetter.com/kirgisistan/ukok/KG1527092.html,42.1812,75.7727,Asia/Bishkek,
uzgorysh,https://wetter.com/kirgisistan/uzgorysh/KG1527050.html,41.2181,74.7043,Asia/Bishkek,
kairma,https://wetter.com/kirgisistan/kairma/KG1528014.html,41.992,74.5823,Asia/Bishkek,
karasu,https://wetter.com/kirgisistan/karasu/KG1528089.html,41.1287,75.6799,Asia/Bishkek,
bash-kaindy,https://wetter.com/kirgisistan/bash-kaindy/KG1528745.html,41.1564,75.9081,Asia/Bishkek,
ak-muz,https://wetter.com/kirgisistan/ak-muz/KG1528927.html,41.2492,76.1361,Asia/Bishkek,
kyzyltu,https://wetter.com/kirgisistan/kyzyltu/KG1527703.html,41.0576,75.5516,Asia/Bishkek,
kumtyube,https://wetter.com/kirgisistan/kumtyube/KG1528942.html,42.2182,75.5508,Asia/Bishkek,
dzhangy-talap,https://wetter.com/kirgisistan/dzhangy-talap/KG1528410.html,41.4585,75.0197,Asia/Bishkek,
chatyr-tash,https://wetter.com/kirgisistan/chatyr-tash/KG1540824.html,40.9011,76.4476,Asia/Bishkek,
arpa,https://wetter.com/kirgisistan/arpa/KG1528822.html,40.7882,74.7775,Asia/Bishkek,
at-bashi,https://wetter.com/kirgisistan/at-bashi/KG1528796.html,41.1695,75.801,Asia/Bishkek,
kalinin-atyndagy,https://wetter.com/kirgisistan/kalinin-atyndagy/KG1540813.html,41.0897,75.675,Asia/Bishkek,
epkin,https://wetter.com/kirgisistan/epkin/KG1528341.html,42.1763,75.4175,Asia/Bishkek,
bel-kyrchin,https://wetter.com/kirgisistan/bel-kyrchin/KG1528560.html,41.1867,74.5604,Asia/Bishkek,
baetovo,https://wetter.com/kirgisistan/baetovo/KG1528766.html,41.2667,74.957,Asia/Bishkek,
birlik,https://wetter.com/kirgisistan/birlik/KG1528679.html,41.2095,75.9447,Asia/Bishkek,
alysh,https://wetter.com/kirgisistan/alysh/KG1540831.html,41.4448,76.1947,Asia/Bishkek,
kazybek,https://wetter.com/kirgisistan/kazybek/KG1540814.html,41.0333,75.5327,Asia/Bishkek,
kachkynchy,https://wetter.com/kirgisistan/kachkynchy/KG1527836.html,41.0139,73.0318,Asia/Bishkek,
kara-kul,https://wetter.com/kirgisistan/kara-kul/KG1528124.html,41.6283,72.6703,Asia/Bishkek,
jangi-bazar,https://wetter.com/kirgisistan/jangi-bazar/KG1527018.html,41.6752,70.8605,Asia/Bishkek,
pulgon,https://wetter.com/kirgisistan/pulgon/KG7648391.html,40.1472,71.7296,Asia/Bishkek,
iradan,https://wetter.com/kirgisistan/iradan/KG1528283.html,40.2667,72.1,Asia/Bishkek,
tayan,https://wetter.com/kirgisistan/tayan/KG1222554.html,39.9026,71.1083,Asia/Bishkek,
orozbekovo,https://wetter.com/kirgisistan/orozbekovo/KG1527566.html,40.0569,71.6695,Asia/Bishkek,
samarkandyk,https://wetter.com/kirgisistan/samarkandyk/KG8375152.html,39.9981,70.5459,Asia/Bishkek,
karavan,https://wetter.com/kirgisistan/karavan/KG1528053.html,40.2951,72.1863,Asia/Bishkek,
ormosh,https://wetter.com/kirgisistan/ormosh/KG8388007.html,39.9459,71.2609,Asia/Bishkek,
korgon,https://wetter.com/kirgisistan/korgon/KG1222618.html,39.889,69.9356,Asia/Bishkek,
kara-bak,https://wetter.com/kirgisistan/kara-bak/KG8375150.html,40.1617,70.8196,Asia/Bishkek,
dinau,https://wetter.com/kirgisistan/dinau/TJ1220014.html,39.6978,69.3684,Asia/Bishkek,
chek,https://wetter.com/kirgisistan/chek/KG8375110.html,40.1093,70.8464,Asia/Bishkek,
katran,https://wetter.com/kirgisistan/katran/KG1222640.html,39.8443,70.0147,Asia/Bishkek,
chechme,https://wetter.com/kirgisistan/chechme/KG1222691.html,39.9439,71.2105,Asia/Bishkek,
aydarken,https://wetter.com/kirgisistan/aydarken/KG1222635.html,39.9432,71.3418,Asia/Bishkek,
alga,https://wetter.com/kirgisistan/alga/KG1528856.html,40.2363,71.499,Asia/Bishkek,
beshkent,https://wetter.com/kirgisistan/beshkent/KG1538310.html,40.0308,69.8186,Asia/Bishkek,
batken,https://wetter.com/kirgisistan/batken/KG1528735.html,40.0626,70.8194,Asia/Bishkek,
boz-adyr,https://wetter.com/kirgisistan/boz-adyr/KG8376076.html,39.9986,71.0734,Asia/Bishkek,
andarkhan,https://wetter.com/kirgisistan/andarkhan/KG1222707.html,39.997,69.8504,Asia/Bishkek,
andarak,https://wetter.com/kirgisistan/andarak/KG1222708.html,39.7685,69.464,Asia/Bishkek,
ak-say,https://wetter.com/kirgisistan/ak-say/KG10370337.html,39.8744,70.5221,Asia/Bishkek,
ak-tatyr,https://wetter.com/kirgisistan/ak-tatyr/KG8382860.html,39.9599,70.4845,Asia/Bishkek,
ak-suu,https://wetter.com/kirgisistan/ak-suu/KG8377866.html,39.8988,69.3716,Asia/Bishkek,
krasnyy-partizan,https://wetter.com/kasachstan/krasnyy-partizan/KZ1520663.html,43.0521,74.6491,Asia/Bishkek,
ak-turpak,https://wetter.com/kirgisistan/ak-turpak/KG1514637.html,40.188,71.0541,Asia/Bishkek,
teskey,https://wetter.com/kirgisistan/teskey/KG1222542.html,39.9029,71.279,Asia/Bishkek,
korgon,https://wetter.com/kirgisistan/korgon/KG1222527.html,39.6445,70.9533,Asia/Bishkek,
ak-tash,https://wetter.com/kirgisistan/ak-tash/KG1527247.html,41.7032,70.6452,Asia/Bishkek,
kanysh-kyya,https://wetter.com/kirgisistan/kanysh-kyya/KG1528190.html,41.7654,71.0918,Asia/Bishkek,
dzheti-koshkon,https://wetter.com/kirgisistan/dzheti-koshkon/KG1528598.html,40.99,72.7317,Asia/Bishkek,
dzhargylchakty,https://wetter.com/kirgisistan/dzhargylchakty/KG1528684.html,41.9855,72.5279,Asia/Bishkek,
dschalalabat,https://wetter.com/kirgisistan/dschalalabat/KG1528249.html,40.9333,73.0,Asia/Bishkek,
balykty,https://wetter.com/kirgisistan/balykty/KG1528752.html,41.9725,72.5811,Asia/Bishkek,
bazar-korgon,https://wetter.com/kirgisistan/bazar-korgon/KG1528717.html,41.0376,72.7459,Asia/Bishkek,
bereynok,https://wetter.com/kirgisistan/bereynok/KG1528698.html,41.9743,72.1878,Asia/Bishkek,
atana,https://wetter.com/kirgisistan/atana/UZ1514531.html,41.3683,71.8506,Asia/Bishkek,
chukurchak,https://wetter.com/kirgisistan/chukurchak/KG1528475.html,41.7826,71.1225,Asia/Bishkek,
arslanbob,https://wetter.com/kirgisistan/arslanbob/KG1528817.html,41.3382,72.9291,Asia/Bishkek,
kara-dzhygach,https://wetter.com/kirgisistan/kara-dzhygach/KG1528161.html,40.1221,72.0927,Asia/Bishkek,
yangak,https://wetter.com/kirgisistan/yangak/KG1528203.html,40.134,71.4504,Asia/Bishkek,
markaz,https://wetter.com/kirgisistan/markaz/KG8376125.html,40.2402,71.8998,Asia/Bishkek,
ala-buka,https://wetter.com/kirgisistan/ala-buka/KG1528875.html,41.4105,71.4863,Asia/Bishkek,
toguz-bulak,https://wetter.com/kirgisistan/toguz-bulak/KG8377922.html,39.8433,69.7136,Asia/Bishkek,
uch-korgon,https://wetter.com/kirgisistan/uch-korgon/KG1527103.html,40.2288,72.0592,Asia/Bishkek,
suluktu,https://wetter.com/kirgisistan/suluktu/KG1222562.html,39.9365,69.5678,Asia/Bishkek,
kyzyl-kyya,https://wetter.com/kirgisistan/kyzyl-kyya/KG1527719.html,40.2568,72.1279,Asia/Bishkek,
kyzyl-bulak,https://wetter.com/kirgisistan/kyzyl-bulak/KG8376054.html,40.0517,71.7373,Asia/Bishkek,
kyrgyz-kyshtak,https://wetter.com/kirgisistan/kyrgyz-kyshtak/KG8376052.html,40.3106,71.3497,Asia/Bishkek,
kulundu,https://wetter.com/kirgisistan/kulundu/KG8377525.html,40.1064,69.6413,Asia/Bishkek,
khalmion,https://wetter.com/kirgisistan/khalmion/KG1527951.html,40.2122,71.6327,Asia/Bishkek,
zar-tash,https://wetter.com/kirgisistan/zar-tash/KG1512274.html,40.2594,71.0269,Asia/Bishkek,
razzakov,https://wetter.com/kirgisistan/razzakov/KG1222662.html,39.839,69.5276,Asia/Bishkek,
kara-debe,https://wetter.com/kirgisistan/kara-debe/KG8139689.html,40.2443,72.0448,Asia/Bishkek,
kyzyl-oktyabr,https://wetter.com/kirgisistan/kyzyl-oktyabr/KG1527716.html,41.3533,73.9064,Asia/Bishkek,
ming-bulak,https://wetter.com/kirgisistan/ming-bulak/KG1527627.html,41.4827,75.8544,Asia/Bishkek,
uech-terek,https://wetter.com/kirgisistan/uech-terek/KG8134212.html,41.7622,73.2003,Asia/Bishkek,
kuybysheva,https://wetter.com/kirgisistan/kuybysheva/KG1523961.html,41.5137,75.8569,Asia/Bishkek,
tyup,https://wetter.com/kirgisistan/tyup/KG1527121.html,42.7276,78.3648,Asia/Bishkek,
dzhiydalik,https://wetter.com/kirgisistan/dzhiydalik/KG1527593.html,40.5539,72.7906,Asia/Bishkek,
chong-aryk,https://wetter.com/kirgisistan/chong-aryk/KG1540661.html,42.8172,74.5809,Asia/Bishkek,
dyikan-kyschtak,https://wetter.com/kirgisistan/dyikan-kyschtak/KG1538117.html,40.516,72.7869,Asia/Bishkek,
zholgolot,https://wetter.com/kirgisistan/zholgolot/KG1528364.html,42.4769,78.4234,Asia/Bishkek,
tert-kul,https://wetter.com/kirgisistan/tert-kul/KG1527175.html,42.1139,76.947,Asia/Bishkek,
kyzyl-kyshtak,https://wetter.com/kirgisistan/kyzyl-kyshtak/KG1527725.html,40.5382,72.7768,Asia/Bishkek,
krasnyy-stroitel,https://wetter.com/kirgisistan/krasnyy-stroitel/KG1540655.html,42.9404,74.5922,Asia/Bishkek,
tokol-dosh,https://wetter.com/kirgisistan/tokol-dosh/KG1527198.html,42.8667,74.6333,Asia/Bishkek,
kok-aryk,https://wetter.com/kirgisistan/kok-aryk/KG1527896.html,42.4167,72.6667,Asia/Bishkek,
chymgent,https://wetter.com/kirgisistan/chymgent/KG1528533.html,42.6234,71.52,Asia/Bishkek,
rybpunkt,https://wetter.com/kirgisistan/rybpunkt/KG1527344.html,42.3715,77.8963,Asia/Bishkek,
vedene,https://wetter.com/kirgisistan/vedene/KG1527036.html,40.2077,72.9884,Asia/Bishkek,
nookat,https://wetter.com/kirgisistan/nookat/KG1528339.html,40.266,72.6183,Asia/Bishkek,
kara-kulja,https://wetter.com/kirgisistan/kara-kulja/KG8145969.html,40.6322,73.5925,Asia/Bishkek,
turpachaty,https://wetter.com/kirgisistan/turpachaty/KG1222538.html,39.976,72.8027,Asia/Bishkek,
teleyken,https://wetter.com/kirgisistan/teleyken/KG1527164.html,40.4867,72.8088,Asia/Bishkek,
papan,https://wetter.com/kirgisistan/papan/KG1527507.html,40.2989,72.9881,Asia/Bishkek,
sarytasch,https://wetter.com/kirgisistan/sarytasch/KG1222576.html,39.7288,73.2484,Asia/Bishkek,
kara-suu,https://wetter.com/kirgisistan/kara-suu/KG1528091.html,40.7046,72.8667,Asia/Bishkek,
kyzyl-tala,https://wetter.com/kirgisistan/kyzyl-tala/KG1222603.html,39.9655,72.964,Asia/Bishkek,
oytal,https://wetter.com/kirgisistan/oytal/KG1527517.html,40.4212,74.1111,Asia/Bishkek,
dschergetal,https://wetter.com/kirgisistan/dschergetal/KG1222673.html,39.9784,73.4873,Asia/Bishkek,
kerme-too,https://wetter.com/kirgisistan/kerme-too/KG1512557.html,40.5598,72.6806,Asia/Bishkek,
urgi,https://wetter.com/kirgisistan/urgi/KG1527076.html,40.3,72.1833,Asia/Bishkek,
otuz-adyr,https://wetter.com/kirgisistan/otuz-adyr/KG1538121.html,40.6061,72.9661,Asia/Bishkek,
djal,https://wetter.com/kirgisistan/djal/KG8335077.html,42.84,74.5653,Asia/Bishkek,
korumdy,https://wetter.com/kirgisistan/korumdy/KG1527842.html,42.6914,77.3493,Asia/Bishkek,
bol-shevik,https://wetter.com/kirgisistan/bol-shevik/KG1528663.html,42.1228,76.8966,Asia/Bishkek,
cholpon,https://wetter.com/kirgisistan/cholpon/KG1528513.html,42.6359,78.4777,Asia/Bishkek,
kara-kel,https://wetter.com/kirgisistan/kara-kel/KG1528125.html,41.2363,73.0498,Asia/Bishkek,
kalinovka,https://wetter.com/kirgisistan/kalinovka/KG1528210.html,42.4753,78.2758,Asia/Bishkek,
chychkan,https://wetter.com/kirgisistan/chychkan/KG1528471.html,42.2748,77.7852,Asia/Bishkek,
grigor-yevka,https://wetter.com/kirgisistan/grigor-yevka/KG1528323.html,42.7182,77.484,Asia/Bishkek,
cholpon-ata,https://wetter.com/kirgisistan/cholpon-ata/KG1528512.html,42.6494,77.0823,Asia/Bishkek,
karadzhal,https://wetter.com/kirgisistan/karadzhal/KG1528162.html,42.5756,78.438,Asia/Bishkek,
dengtala,https://wetter.com/kirgisistan/dengtala/KG1528461.html,42.1263,76.5844,Asia/Bishkek,
engilchek,https://wetter.com/kirgisistan/engilchek/KG1528345.html,42.029,79.0808,Asia/Bishkek,
karakol,https://wetter.com/kirgisistan/karakol/KG0YK0001.html,42.4907,78.3936,Asia/Bishkek,
kyzyl-suu,https://wetter.com/kirgisistan/kyzyl-suu/KG1527497.html,42.3421,78.0064,Asia/Bishkek,
kek-moynok-vtoroye,https://wetter.com/kirgisistan/kek-moynok-vtoroye/KG1540848.html,42.4852,75.8568,Asia/Bishkek,
sovkhoz-orgochor,https://wetter.com/kirgisistan/sovkhoz-orgochor/KG1527554.html,42.3693,78.042,Asia/Bishkek,
semenovka,https://wetter.com/kirgisistan/semenovka/KG1527410.html,42.7229,77.5548,Asia/Bishkek,
orto-tokoy,https://wetter.com/kirgisistan/orto-tokoy/KG1527537.html,42.3423,76.021,Asia/Bishkek,
kongur-oeloen,https://wetter.com/kirgisistan/kongur-oeloen/KG1527853.html,42.1023,76.6211,Asia/Bishkek,
temirkanat,https://wetter.com/kirgisistan/temirkanat/KG1527239.html,42.0569,76.92,Asia/Bishkek,
tepke,https://wetter.com/kirgisistan/tepke/KG1527233.html,42.6018,78.4137,Asia/Bishkek,
temirovka,https://wetter.com/kirgisistan/temirovka/KG1527237.html,42.7024,77.4192,Asia/Bishkek,
bischkek,https://wetter.com/kirgisistan/bischkek/KG0BI0001.html,42.87,74.59,Asia/Bishkek,
tossor,https://wetter.com/kirgisistan/tossor/KG1527170.html,42.1688,77.4407,Asia/Bishkek,
uzunbulak,https://wetter.com/kirgisistan/uzunbulak/KG1527044.html,42.1305,75.2673,Asia/Bishkek,
pristan-przheval-sk,https://wetter.com/kirgisistan/pristan-przheval-sk/KG1527494.html,42.5738,78.3103,Asia/Bishkek,
kensu,https://wetter.com/kirgisistan/kensu/KG1527965.html,42.7553,78.7276,Asia/Bishkek,
daroot-korgon,https://wetter.com/kirgisistan/daroot-korgon/KG1222683.html,39.5527,72.2052,Asia/Bishkek,
orto-say,https://wetter.com/kirgisistan/orto-say/KG1540662.html,42.8034,74.592,Asia/Bishkek,
leninskoye,https://wetter.com/kirgisistan/leninskoye/KG1527684.html,40.6908,73.1902,Asia/Bishkek,
kara-suu,https://wetter.com/kirgisistan/kara-suu/KG1540850.html,42.1955,75.8186,Asia/Bishkek,
chayek,https://wetter.com/kirgisistan/chayek/KG1528566.html,41.9277,74.517,Asia/Bishkek,
kochkor,https://wetter.com/kirgisistan/kochkor/KG1527902.html,42.2155,75.7566,Asia/Bishkek,
sary-bulak,https://wetter.com/kirgisistan/sary-bulak/KG1527458.html,41.9649,75.7618,Asia/Bishkek,
segizinchi-mart,https://wetter.com/kirgisistan/segizinchi-mart/KG1527033.html,41.4578,75.4039,Asia/Bishkek,
kyzart,https://wetter.com/kirgisistan/kyzart/KG1521588.html,42.0302,74.9826,Asia/Bishkek,
teleyken,https://wetter.com/kirgisistan/teleyken/KG1538129.html,40.4485,72.564,Asia/Bishkek,
ottuk,https://wetter.com/kirgisistan/ottuk/KG1527529.html,41.6302,75.8458,Asia/Bishkek,
emgekchil,https://wetter.com/kirgisistan/emgekchil/KG1528342.html,41.5579,75.9743,Asia/Bishkek,
ak-terek,https://wetter.com/kirgisistan/ak-terek/KG1528892.html,40.4145,72.7708,Asia/Bishkek,
arek,https://wetter.com/kirgisistan/arek/KG1538124.html,40.4877,72.7399,Asia/Bishkek,
imeni-kalinina,https://wetter.com/kirgisistan/imeni-kalinina/KG1528296.html,40.8168,73.4797,Asia/Bishkek,
budalyk,https://wetter.com/kirgisistan/budalyk/KG1528621.html,40.2792,73.5104,Asia/Bishkek,
kichi-byulelyu,https://wetter.com/kirgisistan/kichi-byulelyu/KG1527939.html,40.1963,73.6338,Asia/Bishkek,
karatay,https://wetter.com/kirgisistan/karatay/KG1528066.html,40.5157,73.0409,Asia/Bishkek,
aravan,https://wetter.com/kirgisistan/aravan/KG1528831.html,40.5161,72.4996,Asia/Bishkek,
chalk-oyde,https://wetter.com/kirgisistan/chalk-oyde/KG1528586.html,40.7412,73.6589,Asia/Bishkek,
kyzyl-korgon,https://wetter.com/kirgisistan/kyzyl-korgon/KG1527722.html,40.1875,73.4861,Asia/Bishkek,
imeni-chapayeva,https://wetter.com/kirgisistan/imeni-chapayeva/KG1528302.html,40.2773,72.6383,Asia/Bishkek,
osch,https://wetter.com/kirgisistan/osch/KG1527534.html,40.5283,72.7985,Asia/Bishkek,
kyrgyz-chek,https://wetter.com/kirgisistan/kyrgyz-chek/KG1527388.html,40.5538,72.8772,Asia/Bishkek,
myrsa-ake,https://wetter.com/kirgisistan/myrsa-ake/KG1527620.html,40.7529,73.4153,Asia/Bishkek,
karool,https://wetter.com/kirgisistan/karool/KG1528126.html,40.7367,73.2476,Asia/Bishkek,
nura,https://wetter.com/kirgisistan/nura/KG1222586.html,39.6456,73.8719,Asia/Bishkek,
kerkidan,https://wetter.com/kirgisistan/kerkidan/KG1527956.html,40.3976,72.0953,Asia/Bishkek,
oesgoen,https://wetter.com/kirgisistan/oesgoen/KG1527513.html,40.7699,73.3007,Asia/Bishkek,
kashka-terek,https://wetter.com/kirgisistan/kashka-terek/KG1528034.html,40.7746,73.2092,Asia/Bishkek,
basch-bulak,https://wetter.com/kirgisistan/basch-bulak/KG1538120.html,40.5125,72.9671,Asia/Bishkek,
kara-kabak,https://wetter.com/kirgisistan/kara-kabak/KG1222653.html,39.6619,72.7187,Asia/Bishkek,
chong-taldy-suu,https://wetter.com/kirgisistan/chong-taldy-suu/KG1527285.html,40.5505,73.9749,Asia/Bishkek,
gul-cha,https://wetter.com/kirgisistan/gul-cha/KG1528320.html,40.3138,73.4442,Asia/Bishkek,
irkeshtam,https://wetter.com/kirgisistan/irkeshtam/KG1222663.html,39.6793,73.8987,Asia/Bishkek,
kulanj,https://wetter.com/bangladesch/kulanj/rarail/BD1189789.html,24.7448,91.4325,Asia/Dhaka,
bagha,https://wetter.com/bangladesch/bagha/bagha/BD1211979.html,24.8781,91.9961,Asia/Dhaka,
darbasta,https://wetter.com/bangladesch/darbasta/gardana/BD1202866.html,25.0259,92.092,Asia/Dhaka,
bhimkhali,https://wetter.com/bangladesch/bhimkhali/mulinagar/BD1193967.html,24.9705,91.2628,Asia/Dhaka,
ranikhali,https://wetter.com/bangladesch/ranikhali/barni/BD1210102.html,25.0445,91.788,Asia/Dhaka,
dakshin-badal,https://wetter.com/bangladesch/dakshin-badal/takatukia/BD1186682.html,25.111,91.196,Asia/Dhaka,
kanaighat,https://wetter.com/bangladesch/kanaighat/agripara/BD1213198.html,25.0379,92.26,Asia/Dhaka,
manikpur,https://wetter.com/bangladesch/manikpur/kajalsar/BD1199376.html,24.9333,92.3833,Asia/Dhaka,
panchagarh,https://wetter.com/bangladesch/panchagarh/BD1185141.html,26.3334,88.5578,Asia/Dhaka,
tilpara,https://wetter.com/bangladesch/tilpara/gangkol/BD1202944.html,24.7833,92.1167,Asia/Dhaka,
selborash,https://wetter.com/bangladesch/selborash/singpur/BD1187774.html,24.9127,90.996,Asia/Dhaka,
paschim-jaflong,https://wetter.com/bangladesch/paschim-jaflong/lathi/BD1196122.html,25.1325,91.9573,Asia/Dhaka,
sylhet-sma,https://wetter.com/bangladesch/sylhet-sma/sylhet/BD1185099.html,24.899,91.872,Asia/Dhaka,
tajpur,https://wetter.com/bangladesch/tajpur/rangia/BD1189842.html,24.744,91.7622,Asia/Dhaka,
habibpur,https://wetter.com/bangladesch/habibpur/putka/BD1190618.html,24.7193,91.3345,Asia/Dhaka,
bahara,https://wetter.com/bangladesch/bahara/rupa/BD1189474.html,24.6386,91.233,Asia/Dhaka,
paurashava,https://wetter.com/bangladesch/paurashava/thakurgaon/BD1185092.html,26.031,88.4699,Asia/Dhaka,
paikurati,https://wetter.com/bangladesch/paikurati/allipur/BD1212923.html,24.9866,90.9762,Asia/Dhaka,
maijgaon,https://wetter.com/bangladesch/maijgaon/danaram/BD1205215.html,24.7034,91.9048,Asia/Dhaka,
daulatpur,https://wetter.com/bangladesch/daulatpur/karpara/BD1198367.html,24.8533,91.6874,Asia/Dhaka,
ward-11,https://wetter.com/bangladesch/ward-11/uttar-kattali/BD6413560.html,22.3539,91.7811,Asia/Dhaka,
pukhra,https://wetter.com/bangladesch/pukhra/paschim-pokhra/BD1190879.html,24.4265,91.433,Asia/Dhaka,
paikkandi,https://wetter.com/bangladesch/paikkandi/amuria/BD1212762.html,23.0541,89.7823,Asia/Dhaka,
bauria,https://wetter.com/bangladesch/bauria/sandwip/BD1185120.html,22.5141,91.4549,Asia/Dhaka,
rajaganj,https://wetter.com/bangladesch/rajaganj/panichara/BD1192585.html,24.95,92.0333,Asia/Dhaka,
baldhara,https://wetter.com/bangladesch/baldhara/baldhara/BD1211400.html,23.7856,90.1004,Asia/Dhaka,
paurashava,https://wetter.com/bangladesch/paurashava/habiganj/BD1185209.html,24.3804,91.413,Asia/Dhaka,
shamshernagar,https://wetter.com/bangladesch/shamshernagar/BD1188183.html,24.3826,91.9019,Asia/Dhaka,
mollah-para,https://wetter.com/bangladesch/mollah-para/manoharpur/BD1194878.html,25.0371,91.4647,Asia/Dhaka,
paurashava,https://wetter.com/bangladesch/paurashava/maulavi-bazar/BD1185166.html,24.4889,91.7708,Asia/Dhaka,
paurashava,https://wetter.com/bangladesch/paurashava/bhairab-bazar/BD1185263.html,24.0524,90.9764,Asia/Dhaka,
bahara,https://wetter.com/bangladesch/bahara/mantala/BD1194857.html,24.0687,91.3464,Asia/Dhaka,
ashulia,https://wetter.com/bangladesch/ashulia/bara-paragaon/BD1210284.html,23.8798,90.3352,Asia/Dhaka,
kanaighat,https://wetter.com/bangladesch/kanaighat/umagar/BD1185773.html,24.9667,92.2167,Asia/Dhaka,
fatehpur,https://wetter.com/bangladesch/fatehpur/alipur/BD1212933.html,25.0779,91.2574,Asia/Dhaka,
paurashava,https://wetter.com/bangladesch/paurashava/sunamganj/BD1185105.html,25.0689,91.4024,Asia/Dhaka,
balijuri,https://wetter.com/bangladesch/balijuri/dakshinkul/BD1205406.html,25.1134,91.2239,Asia/Dhaka,
chhatak,https://wetter.com/bangladesch/chhatak/chhatak/BD1185254.html,25.0385,91.6696,Asia/Dhaka,
gaznapur,https://wetter.com/bangladesch/gaznapur/lugaon/BD1195989.html,24.5333,91.6167,Asia/Dhaka,
paurashava,https://wetter.com/bangladesch/paurashava/andarul/BD1212714.html,23.9098,90.3514,Asia/Dhaka,
ward-60,https://wetter.com/bangladesch/ward-60/bag-chand-khan/BD1212010.html,23.7167,90.3833,Asia/Dhaka,
kagapasha,https://wetter.com/bangladesch/kagapasha/bogi/BD1208194.html,24.5839,91.3993,Asia/Dhaka,
shibalaya,https://wetter.com/bangladesch/shibalaya/shivalaya/BD1185110.html,23.8364,89.7835,Asia/Dhaka,
bhandaria,https://wetter.com/bangladesch/bhandaria/bhandaria/BD1477498.html,22.489,90.0627,Asia/Dhaka,
paurashava,https://wetter.com/bangladesch/paurashava/feni/BD1185224.html,23.0144,91.3966,Asia/Dhaka,
dakshin-shilmuri,https://wetter.com/bangladesch/dakshin-shilmuri/akusar/BD1213071.html,23.35,91.1167,Asia/Dhaka,
paurashava,https://wetter.com/bangladesch/paurashava/hajiganj/BD1201753.html,23.2519,90.8551,Asia/Dhaka,
paurashava,https://wetter.com/bangladesch/paurashava/laksham/BD1185183.html,23.2402,91.1214,Asia/Dhaka,
jahirabad,https://wetter.com/bangladesch/jahirabad/jaypur/BD1200061.html,23.3333,90.6167,Asia/Dhaka,
shublong,https://wetter.com/bangladesch/shublong/larichara/BD6415671.html,22.7304,92.2394,Asia/Dhaka,
jhilwanja,https://wetter.com/bangladesch/jhilwanja/cox-s-bazar/BD1336134.html,21.4397,92.0096,Asia/Dhaka,
sultanpur,https://wetter.com/bangladesch/sultanpur/raojan/BD1189638.html,22.5351,91.9192,Asia/Dhaka,
joarianala,https://wetter.com/bangladesch/joarianala/delachara/BD6414890.html,21.5121,92.0664,Asia/Dhaka,
padua,https://wetter.com/bangladesch/padua/henachar/BD6416378.html,22.0465,92.1647,Asia/Dhaka,
saidpur,https://wetter.com/bangladesch/saidpur/bashratnagar/BD6413637.html,22.6231,91.6228,Asia/Dhaka,
radhanagar,https://wetter.com/bangladesch/radhanagar/chhagalnaiya/BD1185249.html,23.0248,91.5109,Asia/Dhaka,
sundarpur,https://wetter.com/bangladesch/sundarpur/bibir-hat/BD6414184.html,22.6835,91.7906,Asia/Dhaka,
saherkhali,https://wetter.com/bangladesch/saherkhali/ketzir-taluk/BD6413527.html,22.7375,91.5253,Asia/Dhaka,
uttar-upadi,https://wetter.com/bangladesch/uttar-upadi/bahari/BD1211776.html,23.3045,90.7216,Asia/Dhaka,
bhujpur,https://wetter.com/bangladesch/bhujpur/BD6413688.html,22.7486,91.7439,Asia/Dhaka,
tungibaria,https://wetter.com/bangladesch/tungibaria/patang/BD1192187.html,22.6671,90.4673,Asia/Dhaka,
paurashava,https://wetter.com/bangladesch/paurashava/kumilla/BD0CG0001.html,23.4619,91.185,Asia/Dhaka,
manikchhari,https://wetter.com/bangladesch/manikchhari/manikchari/BD1462681.html,22.8396,91.8413,Asia/Dhaka,
paurashava,https://wetter.com/bangladesch/paurashava/swarna-tila/BD6415649.html,22.6375,92.1865,Asia/Dhaka,
nannar,https://wetter.com/bangladesch/nannar/bajasan/BD1211587.html,23.8797,90.1479,Asia/Dhaka,
satkania,https://wetter.com/bangladesch/satkania/satkania/BD1336133.html,22.0764,92.0496,Asia/Dhaka,
teknaf,https://wetter.com/bangladesch/teknaf/teknaf/BD1185095.html,20.8583,92.2977,Asia/Dhaka,
royipur,https://wetter.com/bangladesch/royipur/raipur/BD1185236.html,23.0391,90.7681,Asia/Dhaka,
haldia-palong,https://wetter.com/bangladesch/haldia-palong/rumkhapalong/BD1189480.html,21.2854,92.1036,Asia/Dhaka,
shahbazpur-town,https://wetter.com/bangladesch/shahbazpur-town/BD1188204.html,24.053,91.1719,Asia/Dhaka,
adra,https://wetter.com/bangladesch/adra/west-padua/BD1185348.html,23.3055,90.9926,Asia/Dhaka,
bhasania,https://wetter.com/bangladesch/bhasania/west-kashipur/BD1185377.html,23.6581,90.8531,Asia/Dhaka,
purba-nabinagar,https://wetter.com/bangladesch/purba-nabinagar/nabinagar/BD1193823.html,23.8879,90.9679,Asia/Dhaka,
sreekail,https://wetter.com/bangladesch/sreekail/roachala/BD1189553.html,23.7474,90.9306,Asia/Dhaka,
paurashava,https://wetter.com/bangladesch/paurashava/lakshmipur/BD1196292.html,22.9443,90.8301,Asia/Dhaka,
paurashava,https://wetter.com/bangladesch/paurashava/ramganj/BD1185127.html,23.1006,90.8499,Asia/Dhaka,
perachhara,https://wetter.com/bangladesch/perachhara/khagrachhari/BD1185252.html,23.1079,91.9701,Asia/Dhaka,
basikpur,https://wetter.com/bangladesch/basikpur/paschim-serpur/BD1185324.html,23.0001,90.8679,Asia/Dhaka,
paurashava,https://wetter.com/bangladesch/paurashava/patiya/BD1185148.html,22.2954,91.979,Asia/Dhaka,
forhadabad,https://wetter.com/bangladesch/forhadabad/muhammmadabad/BD6414414.html,22.5864,91.773,Asia/Dhaka,
rongra,https://wetter.com/indien/rongra/IN1258051.html,25.1773,90.7804,Asia/Dhaka,
paschim-char-umed,https://wetter.com/bangladesch/paschim-char-umed/BD1185399.html,22.2797,90.6932,Asia/Dhaka,
puranagar,https://wetter.com/bangladesch/puranagar/fakirkil/BD6416727.html,22.1657,92.1338,Asia/Dhaka,
keora,https://wetter.com/bangladesch/keora/west-taruli/BD1185314.html,22.6556,90.1559,Asia/Dhaka,
char-kalekhan,https://wetter.com/bangladesch/char-kalekhan/south-gachhua/BD1187428.html,22.9587,90.4119,Asia/Dhaka,
kawkhali,https://wetter.com/bangladesch/kawkhali/kaukhali/BD1185193.html,22.6256,90.06,Asia/Dhaka,
keorabunia,https://wetter.com/bangladesch/keorabunia/adabaria/BD1213280.html,22.2169,90.1959,Asia/Dhaka,
bara-kotha,https://wetter.com/bangladesch/bara-kotha/narikel/BD1193181.html,22.8385,90.2116,Asia/Dhaka,
guthia,https://wetter.com/bangladesch/guthia/hanua/BD1201617.html,22.8151,90.2329,Asia/Dhaka,
nabagram,https://wetter.com/bangladesch/nabagram/barahar/BD1210560.html,22.7117,90.1931,Asia/Dhaka,
jagua,https://wetter.com/bangladesch/jagua/bankira/BD1210918.html,22.6887,90.311,Asia/Dhaka,
ponabalia,https://wetter.com/bangladesch/ponabalia/chandpura/BD1207304.html,22.5862,90.2033,Asia/Dhaka,
mathbari,https://wetter.com/bangladesch/mathbari/char-haliakati/BD1206890.html,22.5856,90.17,Asia/Dhaka,
paurashava,https://wetter.com/bangladesch/paurashava/bhola/BD1336136.html,22.6876,90.644,Asia/Dhaka,
magar,https://wetter.com/bangladesch/magar/dubil/BD1203801.html,22.6769,90.3016,Asia/Dhaka,
kutba,https://wetter.com/bangladesch/kutba/burhanuddin/BD1210565.html,22.4952,90.7239,Asia/Dhaka,
otra,https://wetter.com/bangladesch/otra/debipur/BD1204781.html,22.8742,90.1405,Asia/Dhaka,
barisal-sma,https://wetter.com/bangladesch/barisal-sma/barishal/BD1336137.html,22.705,90.3701,Asia/Dhaka,
chandshi,https://wetter.com/bangladesch/chandshi/bara-kasba/BD1210400.html,22.9851,90.2278,Asia/Dhaka,
kirtipasha,https://wetter.com/bangladesch/kirtipasha/gaihar/BD1203123.html,22.6985,90.178,Asia/Dhaka,
suktagarh,https://wetter.com/bangladesch/suktagarh/char-sangar/BD1206480.html,22.5923,90.1423,Asia/Dhaka,
harta,https://wetter.com/bangladesch/harta/jaykalir-bari/BD1200101.html,22.8797,90.1075,Asia/Dhaka,
lalmohan,https://wetter.com/bangladesch/lalmohan/lalmohan/BD1185251.html,22.3377,90.7371,Asia/Dhaka,
bahara,https://wetter.com/bangladesch/bahara/jatrapur/BD1200147.html,24.6657,91.2831,Asia/Dhaka,
dhulasar,https://wetter.com/bangladesch/dhulasar/dhulasar/BD1204172.html,21.8487,90.2384,Asia/Dhaka,
mithaganj,https://wetter.com/bangladesch/mithaganj/chhota-baliatali/BD1206083.html,21.8872,90.2379,Asia/Dhaka,
dakshin-gunaighar,https://wetter.com/bangladesch/dakshin-gunaighar/bankot/BD1210915.html,23.5808,90.9733,Asia/Dhaka,
mehendiganj,https://wetter.com/bangladesch/mehendiganj/BD1185171.html,22.8226,90.5286,Asia/Dhaka,
rahmatpur,https://wetter.com/bangladesch/rahmatpur/rajkar/BD1190242.html,22.8144,90.3187,Asia/Dhaka,
bandarban,https://wetter.com/bangladesch/bandarban/bandarban/BD1185270.html,22.1953,92.2195,Asia/Dhaka,
paurashava,https://wetter.com/bangladesch/paurashava/pirojpur/BD1185138.html,22.5797,89.9752,Asia/Dhaka,
mathbaria,https://wetter.com/bangladesch/mathbaria/mathba/BD1185173.html,22.2862,89.9588,Asia/Dhaka,
lata-chapli,https://wetter.com/bangladesch/lata-chapli/kuakata/BD1196822.html,21.8212,90.1198,Asia/Dhaka,
barthi,https://wetter.com/bangladesch/barthi/uttar-baurgati/BD1209800.html,23.0188,90.2294,Asia/Dhaka,
barguna,https://wetter.com/bangladesch/barguna/dhalua/BD1204493.html,22.151,90.0877,Asia/Dhaka,
ward-22,https://wetter.com/bangladesch/ward-22/chittagong/BD1205733.html,22.3384,91.8317,Asia/Dhaka,
nachan-mohal,https://wetter.com/bangladesch/nachan-mohal/south-debra/BD1187441.html,22.568,90.2091,Asia/Dhaka,
gaila,https://wetter.com/bangladesch/gaila/seral/BD1188248.html,22.9389,90.1953,Asia/Dhaka,
chandshi,https://wetter.com/bangladesch/chandshi/paschim-saora/BD1185328.html,22.9721,90.2033,Asia/Dhaka,
agarpur,https://wetter.com/bangladesch/agarpur/sahabandar/BD1189276.html,22.8816,90.3072,Asia/Dhaka,
bidyanandapur,https://wetter.com/bangladesch/bidyanandapur/char-madhab-rai/BD1206683.html,22.8328,90.4379,Asia/Dhaka,
niamati,https://wetter.com/bangladesch/niamati/krishnanagar/BD1196921.html,22.4972,90.2103,Asia/Dhaka,
mahilara,https://wetter.com/bangladesch/mahilara/datterabad/BD1204901.html,22.924,90.2216,Asia/Dhaka,
roy-pasha-karapur,https://wetter.com/bangladesch/roy-pasha-karapur/solna/BD1187632.html,22.7444,90.3025,Asia/Dhaka,
shampur,https://wetter.com/bangladesch/shampur/kafrul/BD1199503.html,23.7882,90.3736,Asia/Dhaka,
selborash,https://wetter.com/bangladesch/selborash/ahmadpur/BD1213173.html,24.9167,91.0013,Asia/Dhaka,
kholahati,https://wetter.com/bangladesch/kholahati/paschim-konarnai/BD1192266.html,25.35,89.55,Asia/Dhaka,
prayagpur,https://wetter.com/bangladesch/prayagpur/pragpur/BD1190953.html,24.0089,88.7661,Asia/Dhaka,
rauha-betmari,https://wetter.com/bangladesch/rauha-betmari/betmari/BD1209458.html,24.9225,90.0513,Asia/Dhaka,
bholaba,https://wetter.com/bangladesch/bholaba/gutulia/BD1201818.html,23.8406,90.5997,Asia/Dhaka,
paurashava,https://wetter.com/bangladesch/paurashava/jamalpur/BD1185106.html,24.9197,89.9481,Asia/Dhaka,
purbadhala,https://wetter.com/bangladesch/purbadhala/BD1185133.html,24.9408,90.6003,Asia/Dhaka,
trishal,https://wetter.com/bangladesch/trishal/baghan/BD1211962.html,24.5493,90.4036,Asia/Dhaka,
basati,https://wetter.com/bangladesch/basati/goari/BD1202370.html,24.7388,90.2337,Asia/Dhaka,
kashimpur,https://wetter.com/bangladesch/kashimpur/berulia/BD1209512.html,24.7001,90.1979,Asia/Dhaka,
singdha,https://wetter.com/bangladesch/singdha/bade-dharam/BD1212118.html,24.874,90.9497,Asia/Dhaka,
jahangirpur,https://wetter.com/bangladesch/jahangirpur/barilla/BD1210139.html,24.5122,90.6522,Asia/Dhaka,
barhatta,https://wetter.com/bangladesch/barhatta/bari/BD1210164.html,24.8859,90.9123,Asia/Dhaka,
barhatta,https://wetter.com/bangladesch/barhatta/chandrapur/BD1207270.html,24.9127,90.9217,Asia/Dhaka,
dhala-mulgaon,https://wetter.com/bangladesch/dhala-mulgaon/jamud/BD1200283.html,24.9507,90.642,Asia/Dhaka,
dakshin-bishiura,https://wetter.com/bangladesch/dakshin-bishiura/bara-nandura/BD1210316.html,24.827,90.6769,Asia/Dhaka,
dakshin-bishiura,https://wetter.com/bangladesch/dakshin-bishiura/baruna/BD1210034.html,24.8307,90.663,Asia/Dhaka,
bagachra,https://wetter.com/bangladesch/bagachra/samta/BD1188860.html,22.9964,88.9866,Asia/Dhaka,
putkhali,https://wetter.com/bangladesch/putkhali/rajapur/BD1190337.html,23.0144,88.923,Asia/Dhaka,
pratap-nagar,https://wetter.com/bangladesch/pratap-nagar/madia/BD1195746.html,22.3833,89.2167,Asia/Dhaka,
bagali,https://wetter.com/bangladesch/bagali/ula/BD1185808.html,22.4404,89.3231,Asia/Dhaka,
chirang,https://wetter.com/bangladesch/chirang/dulli/BD1203743.html,24.6353,90.8242,Asia/Dhaka,
putijana,https://wetter.com/bangladesch/putijana/daosa/BD1205176.html,24.6781,90.2151,Asia/Dhaka,
sarmaisa,https://wetter.com/bangladesch/sarmaisa/madal/BD1195943.html,24.841,90.8102,Asia/Dhaka,
baniajan,https://wetter.com/bangladesch/baniajan/kamtala/BD1198768.html,24.8057,90.8349,Asia/Dhaka,
tiasree,https://wetter.com/bangladesch/tiasree/matua/BD1194576.html,24.642,90.95,Asia/Dhaka,
bara-harishpur,https://wetter.com/bangladesch/bara-harishpur/bihar/BD1208752.html,24.3893,89.0007,Asia/Dhaka,
galagaon,https://wetter.com/bangladesch/galagaon/kalahari/BD1199263.html,24.9032,90.4676,Asia/Dhaka,
kaladaha,https://wetter.com/bangladesch/kaladaha/kaladaha/BD1199277.html,24.5751,90.2427,Asia/Dhaka,
khagdahar,https://wetter.com/bangladesch/khagdahar/hasibasi/BD1201290.html,24.7694,90.3472,Asia/Dhaka,
dapunia,https://wetter.com/bangladesch/dapunia/dapunia/BD1205167.html,24.7509,90.357,Asia/Dhaka,
paurashava,https://wetter.com/bangladesch/paurashava/mymensingh/BD1185162.html,24.7564,90.4065,Asia/Dhaka,
sahata,https://wetter.com/bangladesch/sahata/maimansingha-daharapara/BD1195403.html,24.9146,90.8468,Asia/Dhaka,
duaz,https://wetter.com/bangladesch/duaz/garma/BD1202832.html,24.7631,90.8864,Asia/Dhaka,
sahas,https://wetter.com/bangladesch/sahas/latabunia/BD1196128.html,22.7362,89.3872,Asia/Dhaka,
sukhari,https://wetter.com/bangladesch/sukhari/mangalsri/BD1194986.html,24.7333,90.95,Asia/Dhaka,
bishkakuni,https://wetter.com/bangladesch/bishkakuni/gailara/BD1203120.html,24.8947,90.5432,Asia/Dhaka,
challisha,https://wetter.com/bangladesch/challisha/raydum-jhausi/BD1189628.html,24.8634,90.6639,Asia/Dhaka,
paithal,https://wetter.com/bangladesch/paithal/dubail/BD1203810.html,24.3153,90.5331,Asia/Dhaka,
rampur,https://wetter.com/bangladesch/rampur/kak-char/BD1199338.html,24.5858,90.4339,Asia/Dhaka,
rahinganj,https://wetter.com/bangladesch/rahinganj/duai/BD1203827.html,24.8885,90.3695,Asia/Dhaka,
bokainagar,https://wetter.com/bangladesch/bokainagar/kulla/BD1196748.html,24.7207,90.5903,Asia/Dhaka,
paithal,https://wetter.com/bangladesch/paithal/neoka/BD1192917.html,24.35,90.5167,Asia/Dhaka,
paurashava,https://wetter.com/bangladesch/paurashava/sherpur/BD1337248.html,25.0188,90.0175,Asia/Dhaka,
titpalla,https://wetter.com/bangladesch/titpalla/chak-charsi/BD1207858.html,24.8308,89.9309,Asia/Dhaka,
sahata,https://wetter.com/bangladesch/sahata/nalla/BD1193551.html,24.8622,90.8244,Asia/Dhaka,
assasuni,https://wetter.com/bangladesch/assasuni/durgapur-bara/BD1203628.html,22.4872,89.1765,Asia/Dhaka,
paurashava,https://wetter.com/bangladesch/paurashava/satkhira/BD1185111.html,22.7082,89.0719,Asia/Dhaka,
paurashava,https://wetter.com/bangladesch/paurashava/kushtia/BD1185191.html,23.9028,89.1194,Asia/Dhaka,
ghatmajhi,https://wetter.com/bangladesch/ghatmajhi/pukchia/BD1191190.html,23.1546,90.1695,Asia/Dhaka,
tarali,https://wetter.com/bangladesch/tarali/barea/BD1210185.html,22.5096,89.0999,Asia/Dhaka,
churamankati,https://wetter.com/bangladesch/churamankati/bagdanga/BD1212003.html,23.2215,89.1502,Asia/Dhaka,
churamankati,https://wetter.com/bangladesch/churamankati/chhatrahtala/BD1206187.html,23.2122,89.1633,Asia/Dhaka,
kodalia,https://wetter.com/bangladesch/kodalia/munizila/BD1193952.html,22.8667,89.7846,Asia/Dhaka,
jinardi,https://wetter.com/bangladesch/jinardi/tengarpara/BD1186273.html,23.9622,90.6669,Asia/Dhaka,
kashtabhanga,https://wetter.com/bangladesch/kashtabhanga/jhanjhania/BD1199994.html,23.2825,89.1427,Asia/Dhaka,
chanchra,https://wetter.com/bangladesch/chanchra/bara-meghla/BD1210334.html,23.1216,89.1469,Asia/Dhaka,
palashbaria,https://wetter.com/bangladesch/palashbaria/balabhadrapur/BD1211461.html,23.3512,89.5662,Asia/Dhaka,
sholadana,https://wetter.com/bangladesch/sholadana/dakshin-kanmukhi/BD1205427.html,22.5574,89.3831,Asia/Dhaka,
savar-paurashava,https://wetter.com/bangladesch/savar-paurashava/sabhar/BD1349452.html,23.8486,90.25,Asia/Dhaka,
kalagachhia,https://wetter.com/bangladesch/kalagachhia/tartaria/BD1186447.html,23.5933,90.5202,Asia/Dhaka,
paurashava,https://wetter.com/bangladesch/paurashava/madaripur/BD1337245.html,23.171,90.2094,Asia/Dhaka,
paurashava,https://wetter.com/bangladesch/paurashava/tongi/BD1185098.html,23.8915,90.4023,Asia/Dhaka,
nali,https://wetter.com/bangladesch/nali/nimta/BD1192797.html,23.8009,89.9284,Asia/Dhaka,
jinardi,https://wetter.com/bangladesch/jinardi/paralia-chak/BD1192482.html,23.9692,90.6678,Asia/Dhaka,
paurashava,https://wetter.com/bangladesch/paurashava/palang/BD1191368.html,23.2182,90.3508,Asia/Dhaka,
jinardi,https://wetter.com/bangladesch/jinardi/paralia/BD1192483.html,23.9497,90.682,Asia/Dhaka,
gagan,https://wetter.com/bangladesch/gagan/BD1203144.html,22.7466,90.2482,Asia/Dhaka,
patgati,https://wetter.com/bangladesch/patgati/tungipara/BD1185920.html,22.8998,89.9033,Asia/Dhaka,
paurashava,https://wetter.com/bangladesch/paurashava/tangail/BD1336144.html,24.2498,89.9166,Asia/Dhaka,
balihar,https://wetter.com/bangladesch/balihar/jalalpur/BD1200413.html,24.829,88.8323,Asia/Dhaka,
paurashava,https://wetter.com/bangladesch/paurashava/bagerhat/BD1185281.html,22.6566,89.7912,Asia/Dhaka,
roypur,https://wetter.com/bangladesch/roypur/raipur/BD1190397.html,23.2587,89.2954,Asia/Dhaka,
agardari,https://wetter.com/bangladesch/agardari/chubria/BD1205699.html,22.7889,89.0144,Asia/Dhaka,
chapra,https://wetter.com/bangladesch/chapra/madulia/BD1195727.html,23.8497,89.1776,Asia/Dhaka,
paurashava,https://wetter.com/bangladesch/paurashava/kaliganj/BD1185199.html,23.4096,89.138,Asia/Dhaka,
deluti,https://wetter.com/bangladesch/deluti/radhanagar/BD1190582.html,22.6502,89.3866,Asia/Dhaka,
paurashava,https://wetter.com/bangladesch/paurashava/new-port/BD1341800.html,22.4889,89.5958,Asia/Dhaka,
paurashava,https://wetter.com/bangladesch/paurashava/kalia/BD1185272.html,23.043,89.6309,Asia/Dhaka,
paurashava,https://wetter.com/bangladesch/paurashava/jessore/BD1336140.html,23.1697,89.2137,Asia/Dhaka,
paurashava,https://wetter.com/bangladesch/paurashava/bheramara/BD1185262.html,24.0245,88.9923,Asia/Dhaka,
royenda,https://wetter.com/bangladesch/royenda/sarankhola/BD1185239.html,22.3101,89.7911,Asia/Dhaka,
paurashava,https://wetter.com/bangladesch/paurashava/magura/BD7649230.html,23.487,89.4159,Asia/Dhaka,
ward-23,https://wetter.com/bangladesch/ward-23/khulna/BD0KH0001.html,22.8098,89.5644,Asia/Dhaka,
paurashava,https://wetter.com/bangladesch/paurashava/narail/BD1185293.html,23.1551,89.4952,Asia/Dhaka,
harishankarpur,https://wetter.com/bangladesch/harishankarpur/kismat-harisankarpur/BD1197153.html,23.5655,89.2981,Asia/Dhaka,
baghutia,https://wetter.com/bangladesch/baghutia/bhatpara-abhaynagar/BD1185260.html,23.0147,89.4394,Asia/Dhaka,
baidyer-bazar,https://wetter.com/bangladesch/baidyer-bazar/sonargaon/BD1187530.html,23.65,90.6167,Asia/Dhaka,
uttar-char-fasson,https://wetter.com/bangladesch/uttar-char-fasson/BD1205481.html,22.2265,90.7128,Asia/Dhaka,
baraikhali,https://wetter.com/bangladesch/baraikhali/morrelgonj/BD1185167.html,22.4557,89.8558,Asia/Dhaka,
jamdia,https://wetter.com/bangladesch/jamdia/jamdia/BD1200317.html,23.1821,89.3812,Asia/Dhaka,
sabdalpur,https://wetter.com/bangladesch/sabdalpur/jaria/BD1200202.html,23.5429,89.4411,Asia/Dhaka,
jhikargachha,https://wetter.com/bangladesch/jhikargachha/jhingergacha/BD1185204.html,23.1113,89.0906,Asia/Dhaka,
batiaghata,https://wetter.com/bangladesch/batiaghata/phultala/BD1191139.html,22.7167,89.5119,Asia/Dhaka,
mahimaganj,https://wetter.com/bangladesch/mahimaganj/pantair/BD1192539.html,25.1294,89.4769,Asia/Dhaka,
paurashava,https://wetter.com/bangladesch/paurashava/ishwardi/BD1185207.html,24.1286,89.0657,Asia/Dhaka,
gogram,https://wetter.com/bangladesch/gogram/barshipara/BD1210085.html,24.4329,88.4316,Asia/Dhaka,
tapodhan,https://wetter.com/bangladesch/tapodhan/bahar-kachhna/BD1211772.html,25.7652,89.2795,Asia/Dhaka,
anaitara,https://wetter.com/bangladesch/anaitara/bilsa/BD1208513.html,24.0508,90.0043,Asia/Dhaka,
pashuram,https://wetter.com/bangladesch/pashuram/kabaru/BD1197111.html,25.8088,89.23,Asia/Dhaka,
sadya-pushkarni,https://wetter.com/bangladesch/sadya-pushkarni/sadya-pushkarini/BD1189318.html,25.6696,89.1626,Asia/Dhaka,
tapodhan,https://wetter.com/bangladesch/tapodhan/mohabat-khan/BD1195675.html,25.7881,89.2879,Asia/Dhaka,
kakina,https://wetter.com/bangladesch/kakina/rudreswar/BD1189503.html,25.9083,89.2762,Asia/Dhaka,
sundarban,https://wetter.com/bangladesch/sundarban/BD1186938.html,25.7693,88.7284,Asia/Dhaka,
paurashava,https://wetter.com/bangladesch/paurashava/dinajpur/BD1203891.html,25.6275,88.6378,Asia/Dhaka,
kayaltia,https://wetter.com/bangladesch/kayaltia/bankhaira/BD1210926.html,24.067,90.4202,Asia/Dhaka,
darbasta,https://wetter.com/bangladesch/darbasta/abhirampur/BD1213316.html,25.2456,89.3609,Asia/Dhaka,
paurashava,https://wetter.com/bangladesch/paurashava/sirajganj/BD1185115.html,24.4577,89.708,Asia/Dhaka,
nager-para,https://wetter.com/bangladesch/nager-para/balikuri/BD1211284.html,23.0971,90.379,Asia/Dhaka,
kok-dahara,https://wetter.com/bangladesch/kok-dahara/charan/BD1207138.html,24.3587,90.0174,Asia/Dhaka,
mirzapur,https://wetter.com/bangladesch/mirzapur/mirzapur/BD1185165.html,24.1029,90.0984,Asia/Dhaka,
paurashava,https://wetter.com/bangladesch/paurashava/kishorganj/BD1337249.html,24.4394,90.7829,Asia/Dhaka,
khangaon,https://wetter.com/bangladesch/khangaon/alampur/BD1213027.html,25.9327,88.3775,Asia/Dhaka,
silimpur,https://wetter.com/bangladesch/silimpur/pakulla/BD1191397.html,24.1833,89.8748,Asia/Dhaka,
maheshpur,https://wetter.com/bangladesch/maheshpur/chak-bandadoa/BD1207911.html,23.2887,89.7853,Asia/Dhaka,
ward-72,https://wetter.com/bangladesch/ward-72/dakka/BD0DA0001.html,23.7104,90.4074,Asia/Dhaka,
badarganj,https://wetter.com/bangladesch/badarganj/BD1185283.html,25.6742,89.0538,Asia/Dhaka,
kursha,https://wetter.com/bangladesch/kursha/kursa/BD1196542.html,25.7963,88.9981,Asia/Dhaka,
hajipur,https://wetter.com/bangladesch/hajipur/singarol/BD1187799.html,25.8314,88.3272,Asia/Dhaka,
rampur,https://wetter.com/bangladesch/rampur/parbatipur/BD1185149.html,25.6637,88.9309,Asia/Dhaka,
deor,https://wetter.com/bangladesch/deor/khatta/BD1197453.html,25.35,89.0167,Asia/Dhaka,
paurashava,https://wetter.com/bangladesch/paurashava/saidpur/BD6545349.html,25.7777,88.8917,Asia/Dhaka,
kusha-raniganj,https://wetter.com/bangladesch/kusha-raniganj/uttar-malancha/BD1185548.html,25.8696,88.3943,Asia/Dhaka,
milanpur,https://wetter.com/bangladesch/milanpur/BD1194418.html,25.4718,89.1308,Asia/Dhaka,
paurashava,https://wetter.com/bangladesch/paurashava/gaibandha/BD7921384.html,25.3293,89.5438,Asia/Dhaka,
bhandara,https://wetter.com/bangladesch/bhandara/khopragram/BD1197314.html,25.6562,88.4661,Asia/Dhaka,
biral,https://wetter.com/bangladesch/biral/madhabbati/BD1195899.html,25.6511,88.5281,Asia/Dhaka,
paurashava,https://wetter.com/bangladesch/paurashava/lalmonirhat/BD1185181.html,25.9172,89.446,Asia/Dhaka,
dabar,https://wetter.com/bangladesch/dabar/balia/BD1211391.html,25.855,88.5623,Asia/Dhaka,
baharpur,https://wetter.com/bangladesch/baharpur/bankur/BD1210912.html,23.6836,89.5889,Asia/Dhaka,
belka,https://wetter.com/bangladesch/belka/BD1209613.html,25.5234,89.5805,Asia/Dhaka,
paurashava,https://wetter.com/bangladesch/paurashava/rangpur/BD1185188.html,25.7466,89.2517,Asia/Dhaka,
fazlupur,https://wetter.com/bangladesch/fazlupur/manikor/BD1194942.html,25.2833,89.65,Asia/Dhaka,
harinathpur,https://wetter.com/bangladesch/harinathpur/maradatia/BD1194838.html,25.2167,89.5167,Asia/Dhaka,
char-rajibpur,https://wetter.com/bangladesch/char-rajibpur/jaunia-char/BD1200137.html,25.4289,89.8257,Asia/Dhaka,
farakkabad,https://wetter.com/bangladesch/farakkabad/maljahar/BD1195198.html,25.6617,88.6211,Asia/Dhaka,
nageshwari,https://wetter.com/bangladesch/nageshwari/nageswari/BD1185160.html,25.9682,89.6915,Asia/Dhaka,
paurashava,https://wetter.com/bangladesch/paurashava/pirgaaj/BD1337239.html,25.8559,88.3594,Asia/Dhaka,
paurashava,https://wetter.com/bangladesch/paurashava/mitrabati/BD1194252.html,25.8441,88.3674,Asia/Dhaka,
paurashava,https://wetter.com/bangladesch/paurashava/nilphamari/BD7646714.html,25.9417,88.8467,Asia/Dhaka,
bara-bhita,https://wetter.com/bangladesch/bara-bhita/naudahash/BD1193068.html,25.9292,89.6066,Asia/Dhaka,
paurashava,https://wetter.com/bangladesch/paurashava/faridpur/BD1203344.html,23.6061,89.8406,Asia/Dhaka,
sutar-para,https://wetter.com/bangladesch/sutar-para/dohar/BD1185100.html,23.5931,90.1425,Asia/Dhaka,
paurashava,https://wetter.com/bangladesch/paurashava/bajitpur/BD1185276.html,24.2162,90.95,Asia/Dhaka,
enayetpur,https://wetter.com/bangladesch/enayetpur/itali/BD1200658.html,24.9733,88.7792,Asia/Dhaka,
roygaon,https://wetter.com/bangladesch/roygaon/saharai/BD1189226.html,24.9994,88.8044,Asia/Dhaka,
hatur,https://wetter.com/bangladesch/hatur/malahat/BD1195238.html,24.9666,88.6578,Asia/Dhaka,
paurashava,https://wetter.com/bangladesch/paurashava/pabna/BD1336143.html,24.0064,89.2372,Asia/Dhaka,
nizampur,https://wetter.com/bangladesch/nizampur/bahrail/BD1211785.html,24.6513,88.3978,Asia/Dhaka,
jhilim,https://wetter.com/bangladesch/jhilim/lalitahar/BD1196230.html,24.65,88.3833,Asia/Dhaka,
madhnagar,https://wetter.com/bangladesch/madhnagar/halti/BD1201680.html,24.5205,88.9959,Asia/Dhaka,
salanga,https://wetter.com/bangladesch/salanga/goja/BD1202205.html,24.4033,89.5171,Asia/Dhaka,
majhihatta,https://wetter.com/bangladesch/majhihatta/binna-chapar/BD1208476.html,24.9257,89.244,Asia/Dhaka,
jhikra,https://wetter.com/bangladesch/jhikra/ransibari/BD1189795.html,24.6333,88.9,Asia/Dhaka,
mohanpur,https://wetter.com/bangladesch/mohanpur/chaumuha/BD1206307.html,24.5894,88.3734,Asia/Dhaka,
pachandar,https://wetter.com/bangladesch/pachandar/deulia/BD1204605.html,24.5739,88.4889,Asia/Dhaka,
patichara,https://wetter.com/bangladesch/patichara/pati-amlai/BD1192131.html,25.0923,88.8216,Asia/Dhaka,
goalkandi,https://wetter.com/bangladesch/goalkandi/baze-goakandi/BD1209750.html,24.5513,88.8643,Asia/Dhaka,
manikhat,https://wetter.com/bangladesch/manikhat/gabgachhi/BD1203202.html,23.8938,89.4669,Asia/Dhaka,
pakuria,https://wetter.com/bangladesch/pakuria/chaumadia/BD1206308.html,24.1713,88.7633,Asia/Dhaka,
chamrul,https://wetter.com/bangladesch/chamrul/bhali/BD1209265.html,24.9167,89.1667,Asia/Dhaka,
rishikul,https://wetter.com/bangladesch/rishikul/bamlaha/BD1211165.html,24.4695,88.4825,Asia/Dhaka,
paurashava,https://wetter.com/bangladesch/paurashava/netrakona/BD1185116.html,24.8835,90.729,Asia/Dhaka,
deopara,https://wetter.com/bangladesch/deopara/bejoynagar/BD1208729.html,24.3946,88.4397,Asia/Dhaka,
jhilim,https://wetter.com/bangladesch/jhilim/maria/BD1195747.html,24.6414,88.3491,Asia/Dhaka,
mailakanda,https://wetter.com/bangladesch/mailakanda/mechhidengi/BD1194519.html,24.8009,90.58,Asia/Dhaka,
enayetpur,https://wetter.com/bangladesch/enayetpur/indai/BD1200762.html,24.9537,88.7315,Asia/Dhaka,
paurashava,https://wetter.com/bangladesch/paurashava/bogra/BD1337233.html,24.851,89.3711,Asia/Dhaka,
paurashava,https://wetter.com/bangladesch/paurashava/narsingdi/BD1185117.html,23.923,90.7177,Asia/Dhaka,
paurashava,https://wetter.com/bangladesch/paurashava/narayanganj/BD1185155.html,23.6135,90.503,Asia/Dhaka,
garpara,https://wetter.com/bangladesch/garpara/panjan-khara/BD1192564.html,23.9057,89.9832,Asia/Dhaka,
panchuria,https://wetter.com/bangladesch/panchuria/north-kaliganga/BD1191859.html,23.7333,89.7167,Asia/Dhaka,
kusha-raniganj,https://wetter.com/bangladesch/kusha-raniganj/kachan-dumuria/BD1199639.html,25.8912,88.3727,Asia/Dhaka,
balua-masimpur,https://wetter.com/bangladesch/balua-masimpur/hasia/BD1201292.html,25.5505,89.1497,Asia/Dhaka,
goddimari,https://wetter.com/bangladesch/goddimari/madhya-gaddimari/BD1195786.html,26.1702,89.1158,Asia/Dhaka,
handial,https://wetter.com/bangladesch/handial/sathal/BD1188437.html,24.3408,89.343,Asia/Dhaka,
ward-13,https://wetter.com/bangladesch/ward-13/rajshahi/BD0RJ0001.html,24.374,88.6011,Asia/Dhaka,
dogachhi,https://wetter.com/bangladesch/dogachhi/kulna/BD1196745.html,23.9864,89.281,Asia/Dhaka,
paurashava,https://wetter.com/bangladesch/paurashava/joypur-hat/BD1185206.html,25.1015,89.0273,Asia/Dhaka,
nasipur,https://wetter.com/bangladesch/nasipur/itali/BD1200659.html,24.7684,89.4712,Asia/Dhaka,
gabtali,https://wetter.com/bangladesch/gabtali/meru/BD1194444.html,24.8665,89.4474,Asia/Dhaka,
paurashava,https://wetter.com/bangladesch/paurashava/sarishabari/BD1188569.html,24.7513,89.8313,Asia/Dhaka,
paurashava,https://wetter.com/bangladesch/paurashava/par-naogaon/BD1192366.html,24.8042,88.9488,Asia/Dhaka,
jeopara,https://wetter.com/bangladesch/jeopara/hargati/BD1201558.html,24.4333,88.8833,Asia/Dhaka,
durlabhpur,https://wetter.com/bangladesch/durlabhpur/shibganj/BD1185108.html,24.685,88.1564,Asia/Dhaka,
gogram,https://wetter.com/bangladesch/gogram/yousufpur-kursana/BD1196539.html,24.4737,88.4391,Asia/Dhaka,
paurashava,https://wetter.com/bangladesch/paurashava/nawabganj/BD1337240.html,24.5903,88.2744,Asia/Dhaka,
fapore,https://wetter.com/bangladesch/fapore/puran-bogra/BD1190839.html,24.8432,89.3453,Asia/Dhaka,
gohail,https://wetter.com/bangladesch/gohail/palgachha/BD1191340.html,24.7069,89.3509,Asia/Dhaka,
balair-char,https://wetter.com/bangladesch/balair-char/char-sripur/BD1206442.html,24.9538,90.0068,Asia/Dhaka,
tavricheskoye,https://wetter.com/russland/tavricheskoye/RU1489938.html,54.5851,73.6395,Asia/Omsk,
puchkovo,https://wetter.com/russland/puchkovo/RU11888189.html,54.9325,71.5094,Asia/Omsk,
pavlogradka,https://wetter.com/russland/pavlogradka/RU1495480.html,54.2024,73.5592,Asia/Omsk,
odesskoye,https://wetter.com/russland/odesskoye/RU1496380.html,54.215,72.9651,Asia/Omsk,
poltavka,https://wetter.com/russland/poltavka/RU1494500.html,54.3663,71.7632,Asia/Omsk,
moskalenki,https://wetter.com/russland/moskalenki/RU1498381.html,54.9382,71.9351,Asia/Omsk,
nizhnyaya-omka,https://wetter.com/russland/nizhnyaya-omka/RU1497406.html,55.4338,74.9426,Asia/Omsk,
luzino,https://wetter.com/russland/luzino/RU1500207.html,54.9481,73.0353,Asia/Omsk,
nasywajewsk,https://wetter.com/russland/nasywajewsk/RU1497932.html,55.5698,71.3529,Asia/Omsk,
vkhodnoy,https://wetter.com/russland/vkhodnoy/RU1487048.html,54.9518,73.1711,Asia/Omsk,
novoomskiy,https://wetter.com/russland/novoomskiy/RU1496889.html,54.8415,73.3017,Asia/Omsk,
omsk,https://wetter.com/russland/omsk/RU0OM0001.html,54.9924,73.3686,Asia/Omsk,
okoneschnikowo,https://wetter.com/russland/okoneschnikowo/RU1496329.html,54.8377,75.0834,Asia/Omsk,
sherbakul,https://wetter.com/russland/sherbakul/RU1492255.html,54.6316,72.3964,Asia/Omsk,
rostovka,https://wetter.com/russland/rostovka/RU1493523.html,55.3842,71.8891,Asia/Omsk,
lyubinskiy,https://wetter.com/russland/lyubinskiy/RU1500125.html,55.1542,72.6925,Asia/Omsk,
sargatskoje,https://wetter.com/russland/sargatskoje/RU1493004.html,55.6101,73.4972,Asia/Omsk,
russkaya-polyana,https://wetter.com/russland/russkaya-polyana/RU1493423.html,53.7794,73.8806,Asia/Omsk,
znamenskoye,https://wetter.com/russland/znamenskoye/RU1485020.html,57.1281,73.8282,Asia/Omsk,
troitsk,https://wetter.com/russland/troitsk/RU1489202.html,55.7013,72.2337,Asia/Omsk,
tyukalinsk,https://wetter.com/russland/tyukalinsk/RU1488780.html,55.8732,72.1967,Asia/Omsk,
tara,https://wetter.com/russland/tara/RU1490140.html,56.8944,74.371,Asia/Omsk,
tevriz,https://wetter.com/russland/tevriz/RU1489661.html,57.509,72.4042,Asia/Omsk,
ust-ishim,https://wetter.com/russland/ust-ishim/RU1488206.html,57.6935,71.1665,Asia/Omsk,
krutinka,https://wetter.com/russland/krutinka/RU1501690.html,56.0055,71.5113,Asia/Omsk,
kolosovka,https://wetter.com/russland/kolosovka/RU1502879.html,56.4678,73.611,Asia/Omsk,
mar-yanovka,https://wetter.com/russland/mar-yanovka/RU1499279.html,54.961,72.6442,Asia/Omsk,
nowowarschawka,https://wetter.com/russland/nowowarschawka/RU1496633.html,54.1721,74.6946,Asia/Omsk,
krutaya-gorka,https://wetter.com/russland/krutaya-gorka/RU1501710.html,55.3649,73.2231,Asia/Omsk,
isil-kul,https://wetter.com/russland/isil-kul/RU1505438.html,54.9109,71.2728,Asia/Omsk,
azovo,https://wetter.com/russland/azovo/RU1511135.html,54.6997,73.0237,Asia/Omsk,
beregovoy,https://wetter.com/russland/beregovoy/RU1510335.html,55.173,73.2198,Asia/Omsk,
bol-sherech-ye,https://wetter.com/russland/bol-sherech-ye/RU1509494.html,56.0925,74.6272,Asia/Omsk,
kalatschinsk,https://wetter.com/russland/kalatschinsk/RU1505074.html,55.0529,74.5751,Asia/Omsk,
krasnoyarka,https://wetter.com/russland/krasnoyarka/RU1502041.html,55.3333,73.1167,Asia/Omsk,
irtyshskiy,https://wetter.com/russland/irtyshskiy/RU1505496.html,54.8143,73.5872,Asia/Omsk,
kormilovka,https://wetter.com/russland/kormilovka/RU1502526.html,55.0026,74.1028,Asia/Omsk,
muromtsevo,https://wetter.com/russland/muromtsevo/RU1498205.html,56.3724,75.2418,Asia/Omsk,
krasny-jar,https://wetter.com/russland/krasny-jar/RU1501887.html,55.2424,72.9264,Asia/Omsk,
cherlak,https://wetter.com/russland/cherlak/RU1508138.html,54.155,74.8055,Asia/Omsk,
dungna,https://wetter.com/bhutan/dungna/BT1252583.html,27.0333,89.4,Asia/Thimphu,
singye-dzong,https://wetter.com/bhutan/singye-dzong/BT1252439.html,27.9167,91.35,Asia/Thimphu,
ha,https://wetter.com/bhutan/ha/BT1252563.html,27.3875,89.2807,Asia/Thimphu,
samdrup-jongkhar,https://wetter.com/bhutan/samdrup-jongkhar/BT1337388.html,26.8007,91.5052,Asia/Thimphu,
damthang,https://wetter.com/bhutan/damthang/BT1337383.html,27.4167,89.35,Asia/Thimphu,
shongar-dzong,https://wetter.com/bhutan/shongar-dzong/BT1252443.html,27.25,91.0833,Asia/Thimphu,
laya,https://wetter.com/bhutan/laya/BT1337389.html,28.0613,89.6826,Asia/Thimphu,
dawakha,https://wetter.com/bhutan/dawakha/BT1337381.html,27.6667,89.9167,Asia/Thimphu,
lhedang,https://wetter.com/bhutan/lhedang/BT1252528.html,27.95,90.6921,Asia/Thimphu,
punakha,https://wetter.com/bhutan/punakha/BT1252479.html,27.5914,89.8774,Asia/Thimphu,
pajo,https://wetter.com/bhutan/pajo/BT1252495.html,27.5333,89.8833,Asia/Thimphu,
phuentsholing,https://wetter.com/bhutan/phuentsholing/BT1252484.html,26.8516,89.3884,Asia/Thimphu,
nangnang,https://wetter.com/bhutan/nangnang/BT1337303.html,27.6,90.8833,Asia/Thimphu,
kurjey,https://wetter.com/bhutan/kurjey/BT1337302.html,27.6167,90.7,Asia/Thimphu,
byakar-dzong,https://wetter.com/bhutan/byakar-dzong/BT1252622.html,27.55,90.7167,Asia/Thimphu,
jakar,https://wetter.com/bhutan/jakar/BT1337301.html,27.5492,90.7525,Asia/Thimphu,
dewangiri,https://wetter.com/bhutan/dewangiri/BT1252597.html,26.8667,91.4667,Asia/Thimphu,
tsimasham,https://wetter.com/bhutan/tsimasham/BT1252610.html,27.0989,89.536,Asia/Thimphu,
atsho-chhubar,https://wetter.com/bhutan/atsho-chhubar/BT1337385.html,27.4833,89.4,Asia/Thimphu,
ura,https://wetter.com/bhutan/ura/BT1252401.html,27.4167,90.9167,Asia/Thimphu,
dametsi,https://wetter.com/bhutan/dametsi/BT1252600.html,27.3,91.45,Asia/Thimphu,
lingshi,https://wetter.com/bhutan/lingshi/BT1337299.html,27.9167,89.4333,Asia/Thimphu,
lungtenzampa,https://wetter.com/bhutan/lungtenzampa/BT10172752.html,27.4682,89.6444,Asia/Thimphu,
wamrong,https://wetter.com/bhutan/wamrong/BT1337378.html,27.0667,91.5667,Asia/Thimphu,
trashigang,https://wetter.com/bhutan/trashigang/BT1252423.html,27.3331,91.5542,Asia/Thimphu,
thrimshing,https://wetter.com/bhutan/thrimshing/BT1337377.html,27.1333,91.6167,Asia/Thimphu,
chapchha,https://wetter.com/bhutan/chapchha/BT1252535.html,27.2,89.55,Asia/Thimphu,
changchukha-dzong,https://wetter.com/bhutan/changchukha-dzong/BT1252617.html,27.1333,90.35,Asia/Thimphu,
sakteng,https://wetter.com/bhutan/sakteng/BT1252468.html,27.3833,91.8667,Asia/Thimphu,
panbang,https://wetter.com/bhutan/panbang/BT1337356.html,26.8667,90.9833,Asia/Thimphu,
tsirang,https://wetter.com/bhutan/tsirang/BT1252608.html,27.0219,90.1229,Asia/Thimphu,
trashi-yangtse,https://wetter.com/bhutan/trashi-yangtse/BT1252422.html,27.6116,91.498,Asia/Thimphu,
tseshinang,https://wetter.com/bhutan/tseshinang/BT1337380.html,27.75,90.0667,Asia/Thimphu,
sarpang,https://wetter.com/bhutan/sarpang/BT1252460.html,26.864,90.2675,Asia/Thimphu,
pangkha,https://wetter.com/bhutan/pangkha/BT1252492.html,26.95,90.8167,Asia/Thimphu,
wangdue-phodrang,https://wetter.com/bhutan/wangdue-phodrang/BT1252395.html,27.4862,89.8992,Asia/Thimphu,
gangtey-gonpa,https://wetter.com/bhutan/gangtey-gonpa/BT1337304.html,27.5,90.1667,Asia/Thimphu,
lamidangra,https://wetter.com/bhutan/lamidangra/BT1337373.html,26.9667,90.1,Asia/Thimphu,
radi,https://wetter.com/bhutan/radi/BT1337375.html,27.3667,91.6833,Asia/Thimphu,
samdrup-choling,https://wetter.com/bhutan/samdrup-choling/BT1252466.html,27.4,90.5,Asia/Thimphu,
shemgang,https://wetter.com/bhutan/shemgang/BT1252451.html,27.2169,90.6579,Asia/Thimphu,
trongsa,https://wetter.com/bhutan/trongsa/BT1252408.html,27.5026,90.5072,Asia/Thimphu,
paro,https://wetter.com/bhutan/paro/BT1252490.html,27.4305,89.4133,Asia/Thimphu,
dagapela,https://wetter.com/bhutan/dagapela/BT1337374.html,26.9333,89.95,Asia/Thimphu,
gelephu,https://wetter.com/bhutan/gelephu/BT1252560.html,26.8683,90.4878,Asia/Thimphu,
damphu,https://wetter.com/bhutan/damphu/BT1337372.html,27.0167,90.1,Asia/Thimphu,
daphu,https://wetter.com/bhutan/daphu/BT1252601.html,26.9667,89.3833,Asia/Thimphu,
sangbay,https://wetter.com/bhutan/sangbay/BT1252436.html,27.1667,89.0833,Asia/Thimphu,
mongar,https://wetter.com/bhutan/mongar/BT1252514.html,27.2747,91.2396,Asia/Thimphu,
daga,https://wetter.com/bhutan/daga/BT1252433.html,27.0753,89.8769,Asia/Thimphu,
gyepozhing,https://wetter.com/bhutan/gyepozhing/BT1337376.html,27.1833,91.1667,Asia/Thimphu,
lhuentse,https://wetter.com/bhutan/lhuentse/BT1252526.html,27.6679,91.1839,Asia/Thimphu,
shiuji,https://wetter.com/bhutan/shiuji/BT1252445.html,27.1768,89.0253,Asia/Thimphu,
khenpa-dzong,https://wetter.com/bhutan/khenpa-dzong/BT1252413.html,27.8167,91.0833,Asia/Thimphu,
tormoshangsa,https://wetter.com/bhutan/tormoshangsa/BT1252407.html,27.4833,91.1,Asia/Thimphu,
pemagatshel,https://wetter.com/bhutan/pemagatshel/BT1337379.html,27.038,91.4031,Asia/Thimphu,
sibsu,https://wetter.com/bhutan/sibsu/BT1337363.html,26.9972,88.9,Asia/Thimphu,
tshalunang,https://wetter.com/bhutan/tshalunang/BT1337384.html,27.4688,89.5226,Asia/Thimphu,
chengmari,https://wetter.com/bhutan/chengmari/BT1337361.html,26.935,89.041,Asia/Thimphu,
dorokha,https://wetter.com/bhutan/dorokha/BT1337362.html,27.0167,89.2167,Asia/Thimphu,
gasa,https://wetter.com/bhutan/gasa/BT1252578.html,27.9037,89.7269,Asia/Thimphu,
dzongsa-dzong,https://wetter.com/bhutan/dzongsa-dzong/BT1252582.html,27.1,88.8833,Asia/Thimphu,
bhangtar,https://wetter.com/bhutan/bhangtar/BT1337387.html,26.8167,91.7167,Asia/Thimphu,
tobrang,https://wetter.com/bhutan/tobrang/BT1252411.html,27.7167,91.5,Asia/Thimphu,
samtse,https://wetter.com/bhutan/samtse/BT1337360.html,26.899,89.0995,Asia/Thimphu,
thimphu,https://wetter.com/bhutan/thimphu/BT1252416.html,27.4661,89.6419,Asia/Thimphu,
daifam,https://wetter.com/bhutan/daifam/BT1337386.html,26.9,92.1,Asia/Thimphu,
drugyel-dzong,https://wetter.com/bhutan/drugyel-dzong/BT1337382.html,27.5,89.3333,Asia/Thimphu,
dushanzi,https://wetter.com/china/dushanzi/CN1529528.html,44.3333,84.85,Asia/Urumqi,
ka-ersai,https://wetter.com/china/ka-ersai/CN12450862.html,37.4842,79.5956,Asia/Urumqi,
huangdi,https://wetter.com/china/huangdi/CN12420928.html,38.809,77.4486,Asia/Urumqi,
bageqi,https://wetter.com/china/bageqi/CN8992399.html,37.1407,79.8351,Asia/Urumqi,
altay,https://wetter.com/china/altay/CN0XJ0001.html,47.8486,88.1336,Asia/Urumqi,
yawa,https://wetter.com/china/yawa/CN12450871.html,37.4119,79.5143,Asia/Urumqi,
han-airike,https://wetter.com/china/han-airike/CN8992614.html,37.5417,80.1174,Asia/Urumqi,
changji,https://wetter.com/china/changji/CN1529569.html,44.0078,87.3046,Asia/Urumqi,
atush,https://wetter.com/china/atush/CN1281743.html,39.7109,76.1714,Asia/Urumqi,
baishikante,https://wetter.com/china/baishikante/CN12420920.html,38.4596,77.479,Asia/Urumqi,
dadamtu,https://wetter.com/china/dadamtu/CN1538375.html,43.9803,81.3142,Asia/Urumqi,
bayandai,https://wetter.com/china/bayandai/CN12440489.html,43.9659,81.2485,Asia/Urumqi,
huocheng,https://wetter.com/china/huocheng/CN11694038.html,44.0531,80.8717,Asia/Urumqi,
nischu,https://wetter.com/indien/nischu/IN1261276.html,34.5224,79.1081,Asia/Urumqi,
aksu,https://wetter.com/china/aksu/CN1529660.html,41.1842,80.2792,Asia/Urumqi,
aral,https://wetter.com/china/aral/CN1529641.html,40.5418,81.2657,Asia/Urumqi,
yili,https://wetter.com/china/yili/CN1529435.html,43.9,81.35,Asia/Urumqi,
saybag,https://wetter.com/china/saybag/CN1346630.html,37.1497,79.6583,Asia/Urumqi,
yuqunweng,https://wetter.com/china/yuqunweng/CN1538377.html,43.8744,81.6206,Asia/Urumqi,
kuiya,https://wetter.com/china/kuiya/CN12450864.html,37.296,79.6358,Asia/Urumqi,
ueruemqi,https://wetter.com/china/ueruemqi/CN0XJ0019.html,43.801,87.6005,Asia/Urumqi,
zepu,https://wetter.com/china/zepu/CN1279501.html,38.1887,77.2708,Asia/Urumqi,
sandaohezi,https://wetter.com/china/sandaohezi/CN1529239.html,44.326,85.6201,Asia/Urumqi,
tacheng,https://wetter.com/china/tacheng/CN1529167.html,46.7454,82.9585,Asia/Urumqi,
karamay,https://wetter.com/china/karamay/CN0XJ0010.html,45.5847,84.8872,Asia/Urumqi,
korla,https://wetter.com/china/korla/CN0XJ0012.html,41.7606,86.1523,Asia/Urumqi,
wudalike,https://wetter.com/china/wudalike/CN12420984.html,38.3618,77.1297,Asia/Urumqi,
turpan,https://wetter.com/china/turpan/CN0XJ0018.html,42.9477,89.1789,Asia/Urumqi,
mixia,https://wetter.com/china/mixia/CN12420931.html,38.454,77.2492,Asia/Urumqi,
tumxuk,https://wetter.com/china/tumxuk/CN12022102.html,39.8698,79.0612,Asia/Urumqi,
emin,https://wetter.com/china/emin/CN1529522.html,46.5257,83.6333,Asia/Urumqi,
xinyuan,https://wetter.com/china/xinyuan/CN1529046.html,43.4265,83.2496,Asia/Urumqi,
qaraqash,https://wetter.com/china/qaraqash/CN1280541.html,37.2725,79.7344,Asia/Urumqi,
kuqa,https://wetter.com/china/kuqa/CN0XJ0013.html,41.7171,82.9306,Asia/Urumqi,
zhawa,https://wetter.com/china/zhawa/CN12450873.html,37.2142,79.629,Asia/Urumqi,
hotan,https://wetter.com/china/hotan/CN0XJ0009.html,37.1075,79.9355,Asia/Urumqi,
kaschgar,https://wetter.com/china/kaschgar/CN0XJ0011.html,39.4707,75.9895,Asia/Urumqi,
shihezi,https://wetter.com/china/shihezi/CN1529195.html,44.3023,86.0369,Asia/Urumqi,
tage-erqi,https://wetter.com/china/tage-erqi/CN12420934.html,38.5452,77.2573,Asia/Urumqi,
wusu,https://wetter.com/china/wusu/CN1529099.html,44.4311,84.6762,Asia/Urumqi,
puqiakeqi,https://wetter.com/china/puqiakeqi/CN12450867.html,37.3174,79.7053,Asia/Urumqi,
gaur,https://wetter.com/nepal/gaur/NP1283401.html,26.7645,85.2784,Asia/Kathmandu,
bhata,https://wetter.com/nepal/bhata/NP1283610.html,27.3092,84.7794,Asia/Kathmandu,
taplejun,https://wetter.com/nepal/taplejun/NP1282712.html,27.3571,87.6723,Asia/Kathmandu,
thangmoche,https://wetter.com/nepal/thangmoche/NP1282685.html,27.8445,86.6407,Asia/Kathmandu,
batara,https://wetter.com/nepal/batara/NP1283650.html,26.9608,85.1518,Asia/Kathmandu,
hajminiyatola,https://wetter.com/nepal/hajminiyatola/NP1283357.html,26.7864,85.3101,Asia/Kathmandu,
janakpur,https://wetter.com/nepal/janakpur/NP1283317.html,28.734,80.9336,Asia/Kathmandu,
janakpur,https://wetter.com/nepal/janakpur/NP1283318.html,26.7288,85.9263,Asia/Kathmandu,
kadarbana,https://wetter.com/nepal/kadarbana/NP1283279.html,26.7746,85.3368,Asia/Kathmandu,
maisthan-chauk,https://wetter.com/nepal/maisthan-chauk/NP11845706.html,27.0135,84.8782,Asia/Kathmandu,
lahan,https://wetter.com/nepal/lahan/NP1283161.html,26.7202,86.4826,Asia/Kathmandu,
birta,https://wetter.com/nepal/birta/NP1283578.html,26.7388,86.061,Asia/Kathmandu,
birganj,https://wetter.com/nepal/birganj/NP1283581.html,27.0171,84.8808,Asia/Kathmandu,
nup,https://wetter.com/nepal/nup/NP1282974.html,27.7804,87.8607,Asia/Kathmandu,
lukla,https://wetter.com/nepal/lukla/NP1283113.html,27.6866,86.7314,Asia/Kathmandu,
shivaganj,https://wetter.com/nepal/shivaganj/NP1282794.html,26.6056,87.0757,Asia/Kathmandu,
namche-bazar,https://wetter.com/nepal/namche-bazar/NP1283011.html,27.8053,86.7106,Asia/Kathmandu,
khumjun,https://wetter.com/nepal/khumjun/NP1283196.html,27.8239,86.7198,Asia/Kathmandu,
chisapani,https://wetter.com/nepal/chisapani/NP1283520.html,26.9325,86.1446,Asia/Kathmandu,
samde,https://wetter.com/nepal/samde/NP1282822.html,27.8284,86.6655,Asia/Kathmandu,
malangawa,https://wetter.com/nepal/malangawa/NP1283082.html,26.8566,85.5594,Asia/Kathmandu,
tudikhel,https://wetter.com/nepal/tudikhel/NP1282632.html,27.2222,87.7317,Asia/Kathmandu,
tumlintar,https://wetter.com/nepal/tumlintar/NP1282633.html,27.3183,87.198,Asia/Kathmandu,
chamapur,https://wetter.com/nepal/chamapur/NP11607980.html,26.7185,86.4871,Asia/Kathmandu,
thame,https://wetter.com/nepal/thame/NP1282689.html,27.8317,86.651,Asia/Kathmandu,
phorche,https://wetter.com/nepal/phorche/NP1282913.html,27.8469,86.7492,Asia/Kathmandu,
salleri,https://wetter.com/nepal/salleri/NP6254839.html,27.5038,86.5861,Asia/Kathmandu,
bardiya,https://wetter.com/nepal/bardiya/NP1283662.html,28.3006,81.3536,Asia/Kathmandu,
nijgadh,https://wetter.com/nepal/nijgadh/NP1282979.html,27.2018,85.1712,Asia/Kathmandu,
siraha,https://wetter.com/nepal/siraha/NP1282770.html,26.6542,86.208,Asia/Kathmandu,
rampur,https://wetter.com/nepal/rampur/NP1282874.html,27.1999,84.7997,Asia/Kathmandu,
ghumthang,https://wetter.com/nepal/ghumthang/NP1283391.html,27.8643,85.8607,Asia/Kathmandu,
barhabise,https://wetter.com/nepal/barhabise/NP1283706.html,27.7887,85.8986,Asia/Kathmandu,
dhadin-besi,https://wetter.com/nepal/dhadin-besi/NP6254844.html,27.9128,84.8963,Asia/Kathmandu,
jupu,https://wetter.com/nepal/jupu/NP1283291.html,29.1558,81.2981,Asia/Kathmandu,
kailali,https://wetter.com/nepal/kailali/NP1283275.html,28.571,80.795,Asia/Kathmandu,
jain,https://wetter.com/nepal/jain/NP1283326.html,28.7873,80.3731,Asia/Kathmandu,
dobala,https://wetter.com/nepal/dobala/NP1283434.html,29.0245,80.5009,Asia/Kathmandu,
bhimdatta,https://wetter.com/nepal/bhimdatta/NP1283095.html,28.964,80.1772,Asia/Kathmandu,
chainpur,https://wetter.com/nepal/chainpur/NP1283559.html,29.5623,81.1935,Asia/Kathmandu,
dob,https://wetter.com/nepal/dob/NP1283480.html,29.946,80.6382,Asia/Kathmandu,
darchula,https://wetter.com/nepal/darchula/NP1283484.html,29.83,80.55,Asia/Kathmandu,
barbatta,https://wetter.com/nepal/barbatta/NP1283666.html,28.8054,80.2496,Asia/Kathmandu,
bichhuwa,https://wetter.com/nepal/bichhuwa/NP1283590.html,28.7733,80.517,Asia/Kathmandu,
banda,https://wetter.com/nepal/banda/NP1283682.html,28.8564,80.4214,Asia/Kathmandu,
dipayal,https://wetter.com/nepal/dipayal/NP6254845.html,29.2608,80.94,Asia/Kathmandu,
dhangadhi,https://wetter.com/nepal/dhangadhi/NP1283467.html,28.7014,80.5898,Asia/Kathmandu,
bagar,https://wetter.com/nepal/bagar/NP1283715.html,29.0596,80.7625,Asia/Kathmandu,
bajura,https://wetter.com/nepal/bajura/NP1283696.html,29.3648,81.333,Asia/Kathmandu,
dhun,https://wetter.com/nepal/dhun/NP1283445.html,29.606,80.7572,Asia/Kathmandu,
bandadandi,https://wetter.com/nepal/bandadandi/NP1283683.html,28.7338,80.5382,Asia/Kathmandu,
achham,https://wetter.com/nepal/achham/NP1283742.html,29.05,81.3,Asia/Kathmandu,
junbesi,https://wetter.com/nepal/junbesi/NP1283284.html,27.5814,86.5457,Asia/Kathmandu,
athpali,https://wetter.com/nepal/athpali/NP1283720.html,29.6412,80.8199,Asia/Kathmandu,
mangalpur,https://wetter.com/nepal/mangalpur/NP1283072.html,27.1272,85.4362,Asia/Kathmandu,
pattharkot,https://wetter.com/nepal/pattharkot/NP1282928.html,27.1082,85.6593,Asia/Kathmandu,
pokharia,https://wetter.com/nepal/pokharia/NP1282896.html,26.8167,85.25,Asia/Kathmandu,
sundarpur,https://wetter.com/nepal/sundarpur/NP1282746.html,27.0236,85.1243,Asia/Kathmandu,
pipara-simara,https://wetter.com/nepal/pipara-simara/NP1282778.html,27.1646,84.9755,Asia/Kathmandu,
tribeni,https://wetter.com/nepal/tribeni/NP1282647.html,26.9151,87.1587,Asia/Kathmandu,
rampur,https://wetter.com/nepal/rampur/NP1282875.html,27.0932,86.5526,Asia/Kathmandu,
mane-bhanjyan,https://wetter.com/nepal/mane-bhanjyan/NP1283073.html,27.215,86.445,Asia/Kathmandu,
panbari,https://wetter.com/nepal/panbari/NP1282949.html,27.7122,83.2446,Asia/Kathmandu,
tulsipur,https://wetter.com/nepal/tulsipur/NP1282635.html,28.131,82.2973,Asia/Kathmandu,
tansen,https://wetter.com/nepal/tansen/NP1282714.html,27.8666,83.5459,Asia/Kathmandu,
siddharthanagar,https://wetter.com/nepal/siddharthanagar/NP1283621.html,27.5,83.45,Asia/Kathmandu,
ramgram-parasi,https://wetter.com/nepal/ramgram-parasi/NP1282940.html,27.532,83.6678,Asia/Kathmandu,
pratappur,https://wetter.com/nepal/pratappur/NP1282893.html,28.4816,81.3121,Asia/Kathmandu,
manikapur,https://wetter.com/nepal/manikapur/NP1283066.html,28.1057,81.6613,Asia/Kathmandu,
kumbher,https://wetter.com/nepal/kumbher/NP1283174.html,28.2794,81.3989,Asia/Kathmandu,
sitapur,https://wetter.com/nepal/sitapur/NP1282762.html,27.5,83.5833,Asia/Kathmandu,
mugalhawa,https://wetter.com/nepal/mugalhawa/NP1283038.html,27.4957,83.2409,Asia/Kathmandu,
kora-pani,https://wetter.com/nepal/kora-pani/NP1283184.html,28.1003,83.186,Asia/Kathmandu,
purti-ghat,https://wetter.com/nepal/purti-ghat/NP1282890.html,28.0517,83.5411,Asia/Kathmandu,
kumaltar,https://wetter.com/nepal/kumaltar/NP1283176.html,28.0351,82.7788,Asia/Kathmandu,
lumbini,https://wetter.com/nepal/lumbini/NP1282839.html,27.4862,83.2771,Asia/Kathmandu,
khangra-naka,https://wetter.com/nepal/khangra-naka/NP1283214.html,27.7914,82.2811,Asia/Kathmandu,
jogikuti,https://wetter.com/nepal/jogikuti/NP1283296.html,27.6702,83.4628,Asia/Kathmandu,
kohalpur,https://wetter.com/nepal/kohalpur/NP6254851.html,28.1909,81.6871,Asia/Kathmandu,
gulariya,https://wetter.com/nepal/gulariya/NP1283368.html,28.2058,81.3453,Asia/Kathmandu,
girma,https://wetter.com/nepal/girma/NP1283388.html,27.4507,83.6577,Asia/Kathmandu,
gothi,https://wetter.com/nepal/gothi/NP1283372.html,28.4386,81.5268,Asia/Kathmandu,
shrikot,https://wetter.com/nepal/shrikot/NP1282769.html,28.9804,81.4734,Asia/Kathmandu,
ghorahi,https://wetter.com/nepal/ghorahi/NP1283392.html,28.046,82.4879,Asia/Kathmandu,
deoraha,https://wetter.com/nepal/deoraha/NP1283475.html,28.2333,81.45,Asia/Kathmandu,
dhakela,https://wetter.com/nepal/dhakela/NP1283470.html,28.3414,81.4696,Asia/Kathmandu,
butwal,https://wetter.com/nepal/butwal/NP1283562.html,27.7006,83.4484,Asia/Kathmandu,
bhurkia,https://wetter.com/nepal/bhurkia/NP1283591.html,28.4667,81.2833,Asia/Kathmandu,
barewa,https://wetter.com/nepal/barewa/NP1283661.html,27.5172,83.3708,Asia/Kathmandu,
udain,https://wetter.com/nepal/udain/NP1282631.html,28.1696,81.7621,Asia/Kathmandu,
rasuwa,https://wetter.com/nepal/rasuwa/NP1282858.html,27.0862,86.4276,Asia/Kathmandu,
ridi-bajar,https://wetter.com/nepal/ridi-bajar/NP1282849.html,27.937,83.4357,Asia/Kathmandu,
manung,https://wetter.com/nepal/manung/NP1283058.html,28.1512,82.8823,Asia/Kathmandu,
num,https://wetter.com/nepal/num/NP1282975.html,27.5544,87.2839,Asia/Kathmandu,
itahari,https://wetter.com/nepal/itahari/NP1283329.html,26.6637,87.274,Asia/Kathmandu,
panboche,https://wetter.com/nepal/panboche/NP1282945.html,27.8554,86.7899,Asia/Kathmandu,
hatiya,https://wetter.com/nepal/hatiya/NP1283343.html,27.736,87.3385,Asia/Kathmandu,
khadbari,https://wetter.com/nepal/khadbari/NP1283217.html,27.376,87.2077,Asia/Kathmandu,
bhaktapur,https://wetter.com/nepal/bhaktapur/NP1283617.html,27.673,85.4301,Asia/Kathmandu,
ranibirta,https://wetter.com/nepal/ranibirta/NP1282870.html,26.6262,87.9868,Asia/Kathmandu,
jhapa-bajar,https://wetter.com/nepal/jhapa-bajar/NP1283306.html,26.4805,87.854,Asia/Kathmandu,
ilam,https://wetter.com/nepal/ilam/NP1283333.html,26.9094,87.9282,Asia/Kathmandu,
lobuche,https://wetter.com/nepal/lobuche/NP1283119.html,27.9481,86.8102,Asia/Kathmandu,
hidluwa,https://wetter.com/nepal/hidluwa/NP1283338.html,26.6982,87.1083,Asia/Kathmandu,
haraincha,https://wetter.com/nepal/haraincha/NP1283350.html,26.6107,87.3724,Asia/Kathmandu,
gaighat,https://wetter.com/nepal/gaighat/NP6254847.html,26.7917,86.6992,Asia/Kathmandu,
dandakharka,https://wetter.com/nepal/dandakharka/NP1283490.html,26.9683,87.1111,Asia/Kathmandu,
handrun,https://wetter.com/nepal/handrun/NP1283355.html,27.3751,87.6301,Asia/Kathmandu,
dharan,https://wetter.com/nepal/dharan/NP0KO0001.html,26.8144,87.2797,Asia/Kathmandu,
chandra-garhi,https://wetter.com/nepal/chandra-garhi/NP1283551.html,26.585,88.06,Asia/Kathmandu,
bhojpur,https://wetter.com/nepal/bhojpur/NP1283600.html,27.1715,87.0461,Asia/Kathmandu,
dinla,https://wetter.com/nepal/dinla/NP1283436.html,27.0623,87.0206,Asia/Kathmandu,
chainpur,https://wetter.com/nepal/chainpur/NP1283560.html,27.291,87.3159,Asia/Kathmandu,
dhankuta,https://wetter.com/nepal/dhankuta/NP1283465.html,26.9833,87.3333,Asia/Kathmandu,
swargdwar,https://wetter.com/nepal/swargdwar/NP1282739.html,28.1192,82.6738,Asia/Kathmandu,
biratnagar,https://wetter.com/nepal/biratnagar/NP1283582.html,26.4551,87.2701,Asia/Kathmandu,
taulihawa,https://wetter.com/nepal/taulihawa/NP1282704.html,27.5456,83.0542,Asia/Kathmandu,
pyuthan,https://wetter.com/nepal/pyuthan/NP1282887.html,28.0887,82.8843,Asia/Kathmandu,
bhadrapur,https://wetter.com/nepal/bhadrapur/NP1283628.html,26.544,88.0944,Asia/Kathmandu,
rehara,https://wetter.com/nepal/rehara/NP1282854.html,27.5842,83.1228,Asia/Kathmandu,
surajpura,https://wetter.com/nepal/surajpura/NP1282743.html,27.4249,83.7892,Asia/Kathmandu,
beni-ghat,https://wetter.com/nepal/beni-ghat/NP1283637.html,27.357,85.9613,Asia/Kathmandu,
bhaisedobhan,https://wetter.com/nepal/bhaisedobhan/NP1283623.html,27.5091,85.0518,Asia/Kathmandu,
balaju,https://wetter.com/nepal/balaju/NP1283692.html,27.7312,85.3045,Asia/Kathmandu,
salyan,https://wetter.com/nepal/salyan/NP6254840.html,28.3892,82.1456,Asia/Kathmandu,
salyan,https://wetter.com/nepal/salyan/NP1282826.html,28.3786,82.1703,Asia/Kathmandu,
sakh,https://wetter.com/nepal/sakh/NP1282833.html,28.6129,82.5139,Asia/Kathmandu,
salkot,https://wetter.com/nepal/salkot/NP1282830.html,28.8155,81.4687,Asia/Kathmandu,
mugu,https://wetter.com/nepal/mugu/NP1283036.html,29.7274,82.5153,Asia/Kathmandu,
mujkot,https://wetter.com/nepal/mujkot/NP1283032.html,28.8225,81.9306,Asia/Kathmandu,
okta,https://wetter.com/nepal/okta/NP1282628.html,29.0799,82.4768,Asia/Kathmandu,
khadi,https://wetter.com/nepal/khadi/NP1283227.html,28.8102,82.4633,Asia/Kathmandu,
kalikot,https://wetter.com/nepal/kalikot/NP1283268.html,29.0956,81.6828,Asia/Kathmandu,
muchu,https://wetter.com/nepal/muchu/NP1283029.html,30.0668,81.5421,Asia/Kathmandu,
jumla,https://wetter.com/nepal/jumla/NP1283285.html,29.2747,82.1838,Asia/Kathmandu,
katti,https://wetter.com/nepal/katti/NP1283235.html,28.7782,81.8228,Asia/Kathmandu,
kermi,https://wetter.com/nepal/kermi/NP1283230.html,30.0523,81.6989,Asia/Kathmandu,
jamu,https://wetter.com/nepal/jamu/NP1283320.html,28.7833,81.3333,Asia/Kathmandu,
simikot,https://wetter.com/nepal/simikot/NP1282779.html,29.9714,81.8197,Asia/Kathmandu,
jumla,https://wetter.com/nepal/jumla/NP1283286.html,29.25,82.25,Asia/Kathmandu,
dalli,https://wetter.com/nepal/dalli/NP1283493.html,28.7915,82.3075,Asia/Kathmandu,
jajarkot-khalanga,https://wetter.com/nepal/jajarkot-khalanga/NP1283324.html,28.6986,82.1942,Asia/Kathmandu,
taju,https://wetter.com/nepal/taju/NP1282716.html,28.4759,84.9751,Asia/Kathmandu,
dailekh,https://wetter.com/nepal/dailekh/NP1283496.html,28.8443,81.7101,Asia/Kathmandu,
birendranagar,https://wetter.com/nepal/birendranagar/NP6254843.html,28.5967,81.6166,Asia/Kathmandu,
sirdibas,https://wetter.com/nepal/sirdibas/NP1282801.html,28.3811,84.8892,Asia/Kathmandu,
galphagadgau,https://wetter.com/nepal/galphagadgau/NP1283412.html,29.654,81.8807,Asia/Kathmandu,
chhibro,https://wetter.com/nepal/chhibro/NP1283528.html,29.9279,81.8396,Asia/Kathmandu,
dunai,https://wetter.com/nepal/dunai/NP6254846.html,28.9528,82.8942,Asia/Kathmandu,
darma,https://wetter.com/nepal/darma/NP1283482.html,29.7381,82.0708,Asia/Kathmandu,
barekot,https://wetter.com/nepal/barekot/NP1283656.html,28.9612,82.2543,Asia/Kathmandu,
olang,https://wetter.com/nepal/olang/NP1282967.html,28.231,84.6345,Asia/Kathmandu,
taghrin,https://wetter.com/nepal/taghrin/NP1282731.html,28.3709,84.3879,Asia/Kathmandu,
syangja,https://wetter.com/nepal/syangja/NP1282733.html,28.096,83.8724,Asia/Kathmandu,
dhanras,https://wetter.com/nepal/dhanras/NP1283446.html,28.931,81.0755,Asia/Kathmandu,
tarakot,https://wetter.com/nepal/tarakot/NP1282710.html,28.8791,82.9902,Asia/Kathmandu,
surkhet,https://wetter.com/nepal/surkhet/NP1282742.html,28.6033,81.6001,Asia/Kathmandu,
shitalpati,https://wetter.com/nepal/shitalpati/NP1282763.html,28.3672,82.1909,Asia/Kathmandu,
kuseri,https://wetter.com/nepal/kuseri/NP1283169.html,29.4843,80.3332,Asia/Kathmandu,
manakot,https://wetter.com/nepal/manakot/NP1283078.html,29.4765,81.3879,Asia/Kathmandu,
katomato,https://wetter.com/nepal/katomato/NP1283236.html,29.1071,80.6499,Asia/Kathmandu,
lumsal,https://wetter.com/nepal/lumsal/NP1283111.html,29.5914,80.4276,Asia/Kathmandu,
ghoghda,https://wetter.com/nepal/ghoghda/NP1283394.html,29.6167,81.15,Asia/Kathmandu,
nawakot,https://wetter.com/nepal/nawakot/NP1282992.html,29.3298,80.8953,Asia/Kathmandu,
partola,https://wetter.com/nepal/partola/NP1282937.html,29.4864,81.7037,Asia/Kathmandu,
ojna,https://wetter.com/nepal/ojna/NP1282970.html,28.9821,80.6969,Asia/Kathmandu,
patan,https://wetter.com/nepal/patan/NP1282930.html,29.4631,80.5405,Asia/Kathmandu,
pipalkot,https://wetter.com/nepal/pipalkot/NP1282905.html,29.6181,80.8494,Asia/Kathmandu,
pataiya,https://wetter.com/nepal/pataiya/NP1282927.html,28.8891,80.2443,Asia/Kathmandu,
ridikot,https://wetter.com/nepal/ridikot/NP1282852.html,29.2109,81.2218,Asia/Kathmandu,
toli,https://wetter.com/nepal/toli/NP1282652.html,28.9237,81.3422,Asia/Kathmandu,
teghari,https://wetter.com/nepal/teghari/NP1282668.html,28.8416,80.5555,Asia/Kathmandu,
umari,https://wetter.com/nepal/umari/NP1282626.html,29.0833,81.0333,Asia/Kathmandu,
tikapur,https://wetter.com/nepal/tikapur/NP1282666.html,28.5282,81.118,Asia/Kathmandu,
pali,https://wetter.com/nepal/pali/NP1282955.html,29.5,80.5,Asia/Kathmandu,
rimi,https://wetter.com/nepal/rimi/NP1282850.html,29.1317,82.5727,Asia/Kathmandu,
phalaban,https://wetter.com/nepal/phalaban/NP1282923.html,28.2733,82.2775,Asia/Kathmandu,
bardanda,https://wetter.com/nepal/bardanda/NP1283664.html,27.9667,82.8167,Asia/Kathmandu,
rara,https://wetter.com/nepal/rara/NP1282864.html,29.5445,82.0935,Asia/Kathmandu,
bangai,https://wetter.com/nepal/bangai/NP1283677.html,27.6843,83.1325,Asia/Kathmandu,
sepukholagau,https://wetter.com/nepal/sepukholagau/NP1282793.html,28.8877,82.3087,Asia/Kathmandu,
besisahar,https://wetter.com/nepal/besisahar/NP6254842.html,28.2311,84.3775,Asia/Kathmandu,
surkhet,https://wetter.com/nepal/surkhet/NP7649119.html,28.5175,81.7787,Asia/Kathmandu,
til,https://wetter.com/nepal/til/NP1282664.html,30.2217,81.4525,Asia/Kathmandu,
toli,https://wetter.com/nepal/toli/NP1282651.html,28.8993,81.7793,Asia/Kathmandu,
saldan,https://wetter.com/nepal/saldan/NP1282831.html,29.4278,83.0692,Asia/Kathmandu,
bhojpur,https://wetter.com/nepal/bhojpur/NP1283599.html,28.0353,82.2955,Asia/Kathmandu,
beluwa,https://wetter.com/nepal/beluwa/NP1283644.html,28.3464,81.2658,Asia/Kathmandu,
talkot,https://wetter.com/nepal/talkot/NP1282727.html,29.6085,81.3066,Asia/Kathmandu,
maitgau,https://wetter.com/nepal/maitgau/NP1283089.html,29.4516,83.2315,Asia/Kathmandu,
katauje,https://wetter.com/nepal/katauje/NP1283234.html,28.8978,80.8804,Asia/Kathmandu,
lamsun,https://wetter.com/nepal/lamsun/NP1283110.html,28.5185,83.2852,Asia/Kathmandu,
tallo-umse,https://wetter.com/nepal/tallo-umse/NP1282623.html,27.8648,84.1123,Asia/Kathmandu,
thimi,https://wetter.com/nepal/thimi/NP1282677.html,27.68,85.381,Asia/Kathmandu,
ramechhap,https://wetter.com/nepal/ramechhap/NP1282878.html,27.3256,86.0877,Asia/Kathmandu,
trisuli-bazar,https://wetter.com/nepal/trisuli-bazar/NP1282641.html,27.9275,85.1414,Asia/Kathmandu,
nagarkot,https://wetter.com/nepal/nagarkot/NP1283018.html,27.7152,85.5208,Asia/Kathmandu,
arughat,https://wetter.com/nepal/arughat/NP1283724.html,28.0447,84.8112,Asia/Kathmandu,
tandi,https://wetter.com/nepal/tandi/NP1282720.html,27.6472,85.9139,Asia/Kathmandu,
pashupatinath,https://wetter.com/nepal/pashupatinath/NP1282933.html,27.7106,85.3451,Asia/Kathmandu,
phulbari,https://wetter.com/nepal/phulbari/NP1282910.html,27.7896,85.3323,Asia/Kathmandu,
tikauli,https://wetter.com/nepal/tikauli/NP1282665.html,27.6304,84.4949,Asia/Kathmandu,
panauti,https://wetter.com/nepal/panauti/NP1282950.html,27.5845,85.5148,Asia/Kathmandu,
narayangadh,https://wetter.com/nepal/narayangadh/NP1283001.html,27.6976,84.4253,Asia/Kathmandu,
katle,https://wetter.com/nepal/katle/NP1283238.html,27.108,85.9633,Asia/Kathmandu,
paga-bisnudevi,https://wetter.com/nepal/paga-bisnudevi/NP1282946.html,27.6699,85.2779,Asia/Kathmandu,
muglin,https://wetter.com/nepal/muglin/NP6254836.html,27.5761,84.57,Asia/Kathmandu,
nagarjun,https://wetter.com/nepal/nagarjun/NP6254835.html,27.7489,85.2694,Asia/Kathmandu,
mahadevtar,https://wetter.com/nepal/mahadevtar/NP1283099.html,27.5865,84.7274,Asia/Kathmandu,
jhuwani,https://wetter.com/nepal/jhuwani/NP1283304.html,27.5876,84.5283,Asia/Kathmandu,
lalitpur,https://wetter.com/nepal/lalitpur/NP0BA0003.html,27.6766,85.3142,Asia/Kathmandu,
kirtipur,https://wetter.com/nepal/kirtipur/NP1283190.html,27.6787,85.2775,Asia/Kathmandu,
kodari,https://wetter.com/nepal/kodari/NP1283189.html,27.9606,85.9567,Asia/Kathmandu,
hetauda,https://wetter.com/nepal/hetauda/NP1283339.html,27.4284,85.0322,Asia/Kathmandu,
kathmandu,https://wetter.com/nepal/kathmandu/NP0BA0002.html,27.7017,85.3206,Asia/Kathmandu,
dhulikhel,https://wetter.com/nepal/dhulikhel/NP1283448.html,27.6221,85.5428,Asia/Kathmandu,
boran,https://wetter.com/nepal/boran/NP1283667.html,28.1599,85.055,Asia/Kathmandu,
bharatpur,https://wetter.com/nepal/bharatpur/NP1283613.html,27.6768,84.4359,Asia/Kathmandu,
benighat,https://wetter.com/nepal/benighat/NP1283636.html,27.8167,84.7833,Asia/Kathmandu,
bharatpur,https://wetter.com/nepal/bharatpur/NP1283614.html,27.65,84.417,Asia/Kathmandu,
duman,https://wetter.com/nepal/duman/NP1283422.html,27.6833,85.1167,Asia/Kathmandu,
banepa,https://wetter.com/nepal/banepa/NP0BA0001.html,27.6325,85.5219,Asia/Kathmandu,
beluwa,https://wetter.com/nepal/beluwa/NP1283639.html,27.5259,84.8106,Asia/Kathmandu,
khokana,https://wetter.com/nepal/khokana/NP1283203.html,27.6362,85.2989,Asia/Kathmandu,
sakhu,https://wetter.com/nepal/sakhu/NP1282813.html,27.73,85.4638,Asia/Kathmandu,
patibhanjyan,https://wetter.com/nepal/patibhanjyan/NP1282926.html,27.8439,85.4574,Asia/Kathmandu,
upardangadhi,https://wetter.com/nepal/upardangadhi/NP1282621.html,27.7638,84.5828,Asia/Kathmandu,
geta,https://wetter.com/nepal/geta/NP1283399.html,28.7682,80.5632,Asia/Kathmandu,
shikha,https://wetter.com/nepal/shikha/NP1282786.html,28.4424,83.6728,Asia/Kathmandu,
nuwakot,https://wetter.com/nepal/nuwakot/NP1282971.html,28.1311,83.8929,Asia/Kathmandu,
thulibeshi,https://wetter.com/nepal/thulibeshi/NP6254841.html,28.3314,84.4136,Asia/Kathmandu,
samargaon,https://wetter.com/nepal/samargaon/NP1282823.html,28.9567,83.8088,Asia/Kathmandu,
mustang,https://wetter.com/nepal/mustang/NP1283022.html,29.1832,83.9563,Asia/Kathmandu,
pokhara,https://wetter.com/nepal/pokhara/NPXY00001.html,28.2669,83.9685,Asia/Kathmandu,
syan,https://wetter.com/nepal/syan/NP1282735.html,28.7745,83.7069,Asia/Kathmandu,
shringa,https://wetter.com/nepal/shringa/NP1282791.html,27.8,84.3333,Asia/Kathmandu,
ranipauwa,https://wetter.com/nepal/ranipauwa/NP1282869.html,28.2167,84.0,Asia/Kathmandu,
khudi,https://wetter.com/nepal/khudi/NP6941690.html,28.2822,84.3591,Asia/Kathmandu,
lamjung,https://wetter.com/nepal/lamjung/NP1283150.html,28.2099,84.3638,Asia/Kathmandu,
nawal,https://wetter.com/nepal/nawal/NP7969491.html,28.6483,84.1028,Asia/Kathmandu,
pisang,https://wetter.com/nepal/pisang/NP6941685.html,28.6147,84.1472,Asia/Kathmandu,
muktinath,https://wetter.com/nepal/muktinath/NP1283031.html,28.815,83.8754,Asia/Kathmandu,
khansar,https://wetter.com/nepal/khansar/NP1283213.html,28.6698,83.9734,Asia/Kathmandu,
karelung,https://wetter.com/nepal/karelung/NP1283249.html,28.1984,84.176,Asia/Kathmandu,
bagarchhap,https://wetter.com/nepal/bagarchhap/NP1283713.html,28.5335,84.3391,Asia/Kathmandu,
bailani,https://wetter.com/nepal/bailani/NP1283642.html,27.6822,84.0622,Asia/Kathmandu,
beni,https://wetter.com/nepal/beni/NP1283638.html,28.3454,83.5651,Asia/Kathmandu,
baglung,https://wetter.com/nepal/baglung/NP1283711.html,28.2719,83.5898,Asia/Kathmandu,
chame,https://wetter.com/nepal/chame/NP6941689.html,28.5537,84.251,Asia/Kathmandu,
ghilin,https://wetter.com/nepal/ghilin/NP1283395.html,29.0077,83.8579,Asia/Kathmandu,
phugau,https://wetter.com/nepal/phugau/NP1282912.html,28.773,84.2766,Asia/Kathmandu,
gorkha,https://wetter.com/nepal/gorkha/NP1283378.html,28.0024,84.6201,Asia/Kathmandu,
charan,https://wetter.com/nepal/charan/NP1283547.html,29.0909,83.9313,Asia/Kathmandu,
dhegau,https://wetter.com/nepal/dhegau/NP1282701.html,29.0423,84.0163,Asia/Kathmandu,
deorali,https://wetter.com/nepal/deorali/NP1283474.html,28.1219,84.149,Asia/Kathmandu,
jomsom,https://wetter.com/nepal/jomsom/NP7910491.html,28.7844,83.7351,Asia/Kathmandu,
kaski,https://wetter.com/nepal/kaski/NP1283242.html,28.2558,83.9073,Asia/Kathmandu,
khalte,https://wetter.com/nepal/khalte/NP1283220.html,27.8336,84.2971,Asia/Kathmandu,
bakuri,https://wetter.com/nepal/bakuri/NP1283694.html,28.2999,84.1801,Asia/Kathmandu,
walin,https://wetter.com/nepal/walin/NP1282616.html,27.9837,83.7593,Asia/Kathmandu,
bhawaniyapur,https://wetter.com/nepal/bhawaniyapur/NP1283608.html,27.9969,82.1122,Asia/Kathmandu,
galoya,https://wetter.com/sri-lanka/galoya/LK1246204.html,8.15,80.8358,Asia/Colombo,
kurunegala-colony,https://wetter.com/sri-lanka/kurunegala-colony/LK1237979.html,8.2333,80.75,Asia/Colombo,
pothana,https://wetter.com/sri-lanka/pothana/kanadarawa/LK1241865.html,8.3833,80.55,Asia/Colombo,
minihirigama,https://wetter.com/sri-lanka/minihirigama/kadawathabendimulla/LK1242652.html,8.0667,80.8833,Asia/Colombo,
mihinthale,https://wetter.com/sri-lanka/mihinthale/mihintale/LK1235107.html,8.3593,80.5103,Asia/Colombo,
girithale-puranagama,https://wetter.com/sri-lanka/girithale-puranagama/giritale-colony/LK1245657.html,8.0,80.95,Asia/Colombo,
kiriketuwewa,https://wetter.com/sri-lanka/kiriketuwewa/ulpota/LK1225611.html,8.5882,80.728,Asia/Colombo,
palliyagodella,https://wetter.com/sri-lanka/palliyagodella/pangurana/LK1231238.html,8.15,81.1667,Asia/Colombo,
maha-nelubewa,https://wetter.com/sri-lanka/maha-nelubewa/kuda-paladikulama/LK1238650.html,8.2833,80.4167,Asia/Colombo,
kasamaduwa,https://wetter.com/sri-lanka/kasamaduwa/LK1241107.html,8.3167,80.6,Asia/Colombo,
pahala-kudapattiya,https://wetter.com/sri-lanka/pahala-kudapattiya/LK1232219.html,8.4814,80.7299,Asia/Colombo,
kandupagama,https://wetter.com/sri-lanka/kandupagama/katu-puliyankulama/LK1240897.html,8.1833,80.6167,Asia/Colombo,
anuradhapura,https://wetter.com/sri-lanka/anuradhapura/LK1251081.html,8.3122,80.4131,Asia/Colombo,
katuwela,https://wetter.com/sri-lanka/katuwela/kammalakkulama/LK1241883.html,8.5167,80.4667,Asia/Colombo,
habarana,https://wetter.com/sri-lanka/habarana/LK1245159.html,8.0363,80.7467,Asia/Colombo,
bogahawewa1,https://wetter.com/sri-lanka/bogahawewa1/alutgama/LK1251835.html,8.8106,80.8067,Asia/Colombo,
mahailuppallama,https://wetter.com/sri-lanka/mahailuppallama/galenbindunuwewa/LK1246455.html,8.1073,80.4617,Asia/Colombo,
thallattewa,https://wetter.com/sri-lanka/thallattewa/kuda-hammillewa/LK1238798.html,8.4215,80.7447,Asia/Colombo,
kandakaduwa,https://wetter.com/sri-lanka/kandakaduwa/ilandamodu/LK1243258.html,8.2333,81.2833,Asia/Colombo,
kalpe,https://wetter.com/sri-lanka/kalpe/LK1242090.html,8.5019,80.7676,Asia/Colombo,
dachchihalmillawewa,https://wetter.com/sri-lanka/dachchihalmillawewa/diyamayilagahawewa/LK1247747.html,8.45,80.75,Asia/Colombo,
kusumpokuna,https://wetter.com/sri-lanka/kusumpokuna/diwulankadawala/LK1247841.html,8.1167,80.9667,Asia/Colombo,
punchi-halmillewa,https://wetter.com/sri-lanka/punchi-halmillewa/ellewewa/LK1247083.html,8.35,80.7333,Asia/Colombo,
polonnaruwa-town,https://wetter.com/sri-lanka/polonnaruwa-town/polonnaruwa/LK1229901.html,7.9397,81.0027,Asia/Colombo,
thammennawa2,https://wetter.com/sri-lanka/thammennawa2/makulewa/LK1236606.html,8.0987,80.3427,Asia/Colombo,
heeratiya,https://wetter.com/sri-lanka/heeratiya/LK1244516.html,7.7667,80.8167,Asia/Colombo,
hureegaswewa,https://wetter.com/sri-lanka/hureegaswewa/maha-wattegama/LK1236766.html,8.0833,80.3833,Asia/Colombo,
vallipuram,https://wetter.com/sri-lanka/vallipuram/LK1225150.html,9.7833,80.2333,Asia/Colombo,
hurulunikawewa-track-03,https://wetter.com/sri-lanka/hurulunikawewa-track-03/nikawewa-colony/LK1233065.html,8.2667,80.75,Asia/Colombo,
rambukpotha,https://wetter.com/sri-lanka/rambukpotha/kandekumbura/LK1241678.html,6.9833,81.0833,Asia/Colombo,
kirawanagama1,https://wetter.com/sri-lanka/kirawanagama1/iluktenna/LK1243172.html,6.738,80.9325,Asia/Colombo,
galauda,https://wetter.com/sri-lanka/galauda/galanda/LK1246572.html,7.034,80.9861,Asia/Colombo,
bulathwatta,https://wetter.com/sri-lanka/bulathwatta/kottagoda-udagama/LK1239023.html,6.933,81.0913,Asia/Colombo,
magiripura,https://wetter.com/sri-lanka/magiripura/haputale/LK1244713.html,6.7657,80.951,Asia/Colombo,
wekumbura,https://wetter.com/sri-lanka/wekumbura/gallaba/LK1246207.html,6.9126,81.2286,Asia/Colombo,
ridiella,https://wetter.com/sri-lanka/ridiella/LK1228612.html,7.8,80.7833,Asia/Colombo,
detagamuwa,https://wetter.com/sri-lanka/detagamuwa/kataragama/LK1241076.html,6.4134,81.3346,Asia/Colombo,
ella,https://wetter.com/sri-lanka/ella/ella-town/LK1247148.html,6.8756,81.0463,Asia/Colombo,
demodara1,https://wetter.com/sri-lanka/demodara1/demodara/LK1248235.html,6.9002,81.0555,Asia/Colombo,
rathupasketiya,https://wetter.com/sri-lanka/rathupasketiya/bibile/LK1249904.html,7.1577,81.2192,Asia/Colombo,
badulla,https://wetter.com/sri-lanka/badulla/LK1250615.html,6.9802,81.0577,Asia/Colombo,
halgahawella,https://wetter.com/sri-lanka/halgahawella/yatagala-west/LK1222875.html,6.3321,80.0996,Asia/Colombo,
aluthwewa,https://wetter.com/sri-lanka/aluthwewa/alutwewa/LK1251756.html,6.5859,80.9253,Asia/Colombo,
unawatuna-east,https://wetter.com/sri-lanka/unawatuna-east/unawatuna/LK1225514.html,6.0212,80.2503,Asia/Colombo,
arawatta,https://wetter.com/sri-lanka/arawatta/LK1250975.html,7.3333,81.05,Asia/Colombo,
metiwalalanda,https://wetter.com/sri-lanka/metiwalalanda/bowela/LK1249534.html,6.95,80.9333,Asia/Colombo,
dombagahawela,https://wetter.com/sri-lanka/dombagahawela/paragahaulpotha/LK1231039.html,6.8901,81.437,Asia/Colombo,
hindagoda,https://wetter.com/sri-lanka/hindagoda/lindamulla/LK1237696.html,6.9833,81.0667,Asia/Colombo,
pahala-kadurugamuwa,https://wetter.com/sri-lanka/pahala-kadurugamuwa/kadurugamuwa/LK1242550.html,6.8016,80.9398,Asia/Colombo,
dodamgolla,https://wetter.com/sri-lanka/dodamgolla/udawadiya/LK1225907.html,6.8394,81.1176,Asia/Colombo,
galbokka2,https://wetter.com/sri-lanka/galbokka2/kotikanbokka/LK1239049.html,6.7549,81.0993,Asia/Colombo,
wattegama,https://wetter.com/sri-lanka/wattegama/LK1224061.html,6.7989,81.4808,Asia/Colombo,
katugaha,https://wetter.com/sri-lanka/katugaha/neluwa/LK1233237.html,6.9,81.0,Asia/Colombo,
hapuwalakumbura,https://wetter.com/sri-lanka/hapuwalakumbura/wattepanguwa/LK1224030.html,6.9204,81.0467,Asia/Colombo,
karagasthenna,https://wetter.com/sri-lanka/karagasthenna/kotakithula/LK1239124.html,6.8613,80.917,Asia/Colombo,
hingurugamuwa1,https://wetter.com/sri-lanka/hingurugamuwa1/ellagama/LK1247139.html,6.8334,80.9282,Asia/Colombo,
monaragala,https://wetter.com/sri-lanka/monaragala/LK1234808.html,6.8714,81.3487,Asia/Colombo,
welampele,https://wetter.com/sri-lanka/welampele/welanpela/LK1223787.html,7.3667,81.0667,Asia/Colombo,
pussellawa,https://wetter.com/sri-lanka/pussellawa/horambuwa/LK1243871.html,6.8167,81.3333,Asia/Colombo,
rideepana,https://wetter.com/sri-lanka/rideepana/meditale/LK1235443.html,7.0171,81.0528,Asia/Colombo,
viharagala,https://wetter.com/sri-lanka/viharagala/maligatenna/LK1236461.html,6.7555,80.9231,Asia/Colombo,
